id,name,lat,lon,created_at,updated_at
1,Hospital Santo Tomás,8.969822,-79.534385,2015-04-07 02:27:18 UTC,2015-04-07 02:27:18 UTC
2,Estación 5 de Mayo,8.962299,-79.539685,2015-04-07 02:27:18 UTC,2015-04-07 02:27:18 UTC
3,Estación de Marañón,8.961659,-79.538676,2015-04-07 02:27:18 UTC,2015-04-13 23:03:45 UTC
4,Calle 26 Este,8.962773,-79.535136,2015-04-07 02:27:18 UTC,2015-04-07 02:27:18 UTC
5,Hospital del Niño,8.968546,-79.532081,2015-04-07 02:27:18 UTC,2015-04-07 02:27:18 UTC
6,Calle 41 Este,8.972305,-79.528568,2015-04-07 02:27:18 UTC,2015-04-07 02:27:18 UTC
7,Parque Urracá,8.975188,-79.52731,2015-04-07 02:27:18 UTC,2015-04-07 02:27:18 UTC
8,Aquilino de la Guardia,8.974719,-79.521081,2015-04-07 02:27:18 UTC,2015-04-07 02:27:18 UTC
9,Calle 32 Este,8.966448,-79.532867,2015-04-07 02:27:18 UTC,2015-04-07 02:27:18 UTC
11,Calle 45 Este,8.97585,-79.531596,2015-04-07 02:27:18 UTC,2015-04-07 02:27:18 UTC
12,El Geriátrico,8.977883,-79.531055,2015-04-07 02:27:18 UTC,2015-04-07 02:27:18 UTC
13,Avenida 4a Sur,8.978346,-79.52938,2015-04-07 02:27:18 UTC,2015-04-07 02:27:18 UTC
15,Plaza Concordia,8.984402,-79.525864,2015-04-07 02:27:18 UTC,2015-04-07 02:27:18 UTC
18,Cruce Vista Hermosa,8.994342,-79.51936,2015-04-07 02:27:18 UTC,2015-04-07 02:27:18 UTC
20,Mercadito Calidonia,8.963864,-79.539746,2015-04-07 02:27:18 UTC,2015-04-07 02:27:18 UTC
21,Calle 28 Calidonia,8.966251,-79.539086,2015-04-07 02:27:18 UTC,2015-04-07 02:27:18 UTC
22,Porras,8.970087,-79.53685,2015-04-07 02:27:18 UTC,2015-04-07 02:27:18 UTC
23,IJA del Casino,8.972293,-79.536299,2015-04-07 02:27:18 UTC,2015-04-07 02:27:18 UTC
24,Perejil,8.973019,-79.53637,2015-04-07 02:27:18 UTC,2015-04-07 02:27:18 UTC
26,Calle 26 Este,8.962773,-79.535136,2015-04-07 02:27:18 UTC,2015-04-07 02:27:18 UTC
27,Calle 32 Este,8.966448,-79.532867,2015-04-07 02:27:18 UTC,2015-04-07 02:27:18 UTC
28,Calle 41 Este,8.972305,-79.528568,2015-04-07 02:27:18 UTC,2015-04-07 02:27:18 UTC
32,Multiplaza,8.986875,-79.51267,2015-04-07 02:27:18 UTC,2015-04-07 02:27:18 UTC
36,BNP via porras,8.994093,-79.501198,2015-04-07 02:27:18 UTC,2015-04-07 02:27:18 UTC
37,Marbella (el pio pio),8.997702,-79.519846,2015-04-07 02:27:18 UTC,2015-04-07 02:27:18 UTC
38,Marbella (super 99),8.99826,-79.520022,2015-04-07 02:27:18 UTC,2015-04-07 02:27:18 UTC
44,Entrada Club X,9.007657,-79.520585,2015-04-07 02:27:18 UTC,2015-04-07 02:27:18 UTC
52,Power Club,9.002898,-79.533225,2015-04-07 02:27:18 UTC,2015-04-07 02:27:18 UTC
62,Viejo Veranillo R,8.980558,-79.536621,2015-04-07 02:27:18 UTC,2015-04-13 18:12:58 UTC
63,Viejo Veranillo I,8.981221,-79.536772,2015-04-07 02:27:18 UTC,2015-04-13 18:13:24 UTC
65,Universidad de Panamá I,8.984646,-79.535249,2015-04-07 02:27:18 UTC,2015-04-13 18:14:28 UTC
67,Loma la Pava,8.993183,-79.529992,2015-04-07 02:27:18 UTC,2015-04-07 02:27:18 UTC
73,Raenco,9.004559,-79.521719,2015-04-07 02:27:18 UTC,2015-04-07 02:27:18 UTC
74,Raenco (Pueblo Nuevo),9.004494,-79.521493,2015-04-07 02:27:18 UTC,2015-04-07 02:27:18 UTC
75,Sub Estación de Bethania,9.005225,-79.522407,2015-04-07 02:27:18 UTC,2015-04-07 02:27:18 UTC
76,Yuyin Luzcando,9.007625,-79.522817,2015-04-07 02:27:18 UTC,2015-04-07 02:27:18 UTC
77,Super 99 Bethania,9.011371,-79.525325,2015-04-07 02:27:18 UTC,2015-04-07 02:27:18 UTC
79,IPHE,9.006746,-79.527867,2015-04-07 02:27:18 UTC,2015-04-07 02:27:18 UTC
80,Calle 66 Oeste,9.004747,-79.526972,2015-04-07 02:27:18 UTC,2015-04-07 02:27:18 UTC
84,Edificio Carnaval,9.016142,-79.517981,2015-04-07 02:27:18 UTC,2015-04-07 02:27:18 UTC
92,Gran Estación,9.028293,-79.507037,2015-04-07 02:27:18 UTC,2015-04-07 02:27:18 UTC
93,Machetazo San Miguelito,9.029618,-79.506909,2015-04-07 02:27:18 UTC,2015-04-07 02:27:18 UTC
94,del Hospital,9.031478,-79.508281,2015-04-07 02:27:18 UTC,2015-04-07 02:27:18 UTC
59,Cervecería Nacional I,8.989494,-79.533467,2015-04-07 02:27:18 UTC,2015-04-14 22:57:35 UTC
57,La Loceria I,8.993667,-79.534195,2015-04-07 02:27:18 UTC,2015-04-14 22:57:58 UTC
58,La Loceria R,8.993971,-79.53379,2015-04-07 02:27:18 UTC,2015-04-14 22:57:50 UTC
48,El Dorado I,9.009789,-79.534533,2015-04-07 02:27:18 UTC,2015-04-15 14:23:20 UTC
83,Edificio Bolívar I,9.013197,-79.517738,2015-04-07 02:27:18 UTC,2015-04-15 14:26:26 UTC
81,Escuela Manuel E. Amador I,9.008552,-79.518835,2015-04-07 02:27:18 UTC,2015-04-15 14:27:05 UTC
46,Universidad Tecnológica I,9.020108,-79.531805,2015-04-07 02:27:18 UTC,2015-04-15 14:27:58 UTC
47,Villa las Fuentes I,9.014913,-79.535286,2015-04-07 02:27:18 UTC,2015-04-15 14:28:37 UTC
45,Santa María I,9.021146,-79.529563,2015-04-07 02:27:18 UTC,2015-04-15 14:28:17 UTC
90,Estrella Azul R,9.023146,-79.512885,2015-04-07 02:27:18 UTC,2015-04-15 15:38:57 UTC
16,Estación de Metro Vía Argentina,8.989367,-79.522235,2015-04-07 02:27:18 UTC,2015-04-15 15:10:19 UTC
66,Loma la Pava R,8.993093,-79.529762,2015-04-07 02:27:18 UTC,2015-04-15 15:40:08 UTC
71,Bethania I,9.002334,-79.52336,2015-04-07 02:27:18 UTC,2015-04-15 15:40:30 UTC
82,Edificio Cosmopolitan,9.012076,-79.517385,2015-04-07 02:27:18 UTC,2015-04-15 15:41:41 UTC
10,Hospital Nacional,8.972333,-79.532956,2015-04-07 02:27:18 UTC,2015-04-15 16:29:35 UTC
25,Martín Sosa I,8.977241,-79.534884,2015-04-07 02:27:18 UTC,2015-04-15 16:32:04 UTC
31,Aquilino de la Guardia R,8.974719,-79.521081,2015-04-07 02:27:18 UTC,2015-04-16 16:31:37 UTC
19,Furniture City I,8.995582,-79.519574,2015-04-07 02:27:18 UTC,2015-04-24 19:51:10 UTC
99,Moya,9.042247,-79.508148,2015-04-07 02:27:18 UTC,2015-04-07 02:27:18 UTC
102,Piquera de Rutas interna de Veranillo,9.047365,-79.507097,2015-04-07 02:27:18 UTC,2015-04-07 02:27:18 UTC
103,Centro Comercial Los Andes,9.048902,-79.508126,2015-04-07 02:27:18 UTC,2015-04-07 02:27:18 UTC
33,Kyocera I,8.98713,-79.509265,2015-04-07 02:27:18 UTC,2015-04-28 22:03:09 UTC
40,Plaza Córdoba I,9.002467,-79.520236,2015-04-07 02:27:18 UTC,2015-04-26 21:17:41 UTC
68,Multiláminas R,8.996684,-79.527159,2015-04-07 02:27:18 UTC,2015-04-26 22:39:17 UTC
86,Instituto Comercial R,9.016962,-79.517288,2015-04-07 02:27:18 UTC,2015-04-26 22:43:39 UTC
85,Instituto Comercial I,9.016715,-79.517595,2015-04-07 02:27:18 UTC,2015-04-26 22:43:53 UTC
43,El Ingenio I,9.006107,-79.520593,2015-04-07 02:27:18 UTC,2015-04-27 13:46:26 UTC
41,El Ingenio R,9.005754,-79.520143,2015-04-07 02:27:18 UTC,2015-04-27 13:46:41 UTC
50,Plaza Mirage I,9.006622,-79.533766,2015-04-07 02:27:18 UTC,2015-04-27 14:16:17 UTC
49,El Dorado R,9.009607,-79.534058,2015-04-07 02:27:18 UTC,2015-04-27 14:17:57 UTC
53,Super 99 de Pribanco,9.0007,-79.533007,2015-04-07 02:27:18 UTC,2015-04-27 14:17:34 UTC
56,Antiguo Depósito I,8.996578,-79.533613,2015-04-07 02:27:18 UTC,2015-04-27 14:17:12 UTC
51,Plaza Mirage R,9.004981,-79.533033,2015-04-07 02:27:18 UTC,2015-04-27 14:17:46 UTC
54,Los Ángeles I,8.998416,-79.53351,2015-04-07 02:27:18 UTC,2015-04-27 14:51:27 UTC
98,Rodapán I,9.040888,-79.50858,2015-04-07 02:27:18 UTC,2015-04-27 20:36:45 UTC
104,Centro Comercial Los Andes I,9.048822,-79.508507,2015-04-07 02:27:18 UTC,2015-04-27 20:36:04 UTC
91,Estrella Azul I,9.023527,-79.512616,2015-04-07 02:27:18 UTC,2015-04-27 20:37:45 UTC
97,Pan de Azúcar,9.039244,-79.50781,2015-04-07 02:27:18 UTC,2015-04-28 12:59:47 UTC
96,Pan de Azúcar,9.038094,-79.508218,2015-04-07 02:27:18 UTC,2015-04-28 12:59:55 UTC
95,Escuela Rubiano I,9.036357,-79.506817,2015-04-07 02:27:18 UTC,2015-04-28 13:00:30 UTC
69,Calle 64 Oeste R,8.998798,-79.525421,2015-04-07 02:27:18 UTC,2015-04-28 13:02:50 UTC
34,Instituto Justo Arosemena I,8.987695,-79.505138,2015-04-07 02:27:18 UTC,2015-04-28 22:03:23 UTC
35,Atlapa I,8.988167,-79.501488,2015-04-07 02:27:18 UTC,2015-04-28 22:07:11 UTC
17,Obarrio,8.992779,-79.520368,2015-04-07 02:27:18 UTC,2015-05-01 16:57:44 UTC
113,Campo Verde,9.065664,-79.515147,2015-04-07 02:27:18 UTC,2015-04-07 02:27:18 UTC
114,Campo Verde (Pozuelo),9.06536,-79.515696,2015-04-07 02:27:18 UTC,2015-04-07 02:27:18 UTC
120,ULAPS,9.079611,-79.526494,2015-04-07 02:27:18 UTC,2015-04-07 02:27:18 UTC
131,Calle 2da,9.118157,-79.544148,2015-04-07 02:27:18 UTC,2015-04-07 02:27:18 UTC
134,Calle 7ma Alcalde Díaz,9.123612,-79.545699,2015-04-07 02:27:18 UTC,2015-04-07 02:27:18 UTC
137,Calle Nata,9.132944,-79.54895,2015-04-07 02:27:18 UTC,2015-04-07 02:27:18 UTC
139,Salida El Amanecer,9.138654,-79.552689,2015-04-07 02:27:18 UTC,2015-04-07 02:27:18 UTC
140,Altos Alcalde Díaz,9.124571,-79.551669,2015-04-07 02:27:18 UTC,2015-04-07 02:27:18 UTC
141,Abarrotería Griselda,9.124666,-79.550119,2015-04-07 02:27:18 UTC,2015-04-07 02:27:18 UTC
142,Corregiduría Alcalde Díaz,9.123866,-79.556959,2015-04-07 02:27:18 UTC,2015-04-07 02:27:18 UTC
143,Iglesia Alcalde Díaz,9.121687,-79.557989,2015-04-07 02:27:18 UTC,2015-04-07 02:27:18 UTC
144,Calle Las Tablas,9.120752,-79.557141,2015-04-07 02:27:18 UTC,2015-04-07 02:27:18 UTC
145,Bomberos Alcalde Díaz,9.118681,-79.555207,2015-04-07 02:27:18 UTC,2015-04-07 02:27:18 UTC
146,Calle José S. Guevara,9.116239,-79.554851,2015-04-07 02:27:18 UTC,2015-04-07 02:27:18 UTC
147,Centro de Salud Alcalde Díaz,9.112463,-79.555666,2015-04-07 02:27:18 UTC,2015-04-07 02:27:18 UTC
148,Entrada Alcalde Díaz,9.11037,-79.555559,2015-04-07 02:27:18 UTC,2015-04-07 02:27:18 UTC
153,Villa Nueva,9.124993,-79.588141,2015-04-07 02:27:18 UTC,2015-04-07 02:27:18 UTC
154,Entrada de San Vicente,9.122747,-79.596147,2015-04-07 02:27:18 UTC,2015-04-07 02:27:18 UTC
162,Artec,9.032216,-79.511847,2015-04-07 02:27:18 UTC,2015-04-07 02:27:18 UTC
175,Balmoral,9.059137,-79.432579,2015-04-07 02:27:18 UTC,2015-04-07 02:27:18 UTC
116,Milla 8 R,9.068751,-79.51856,2015-04-07 02:27:18 UTC,2015-04-15 15:45:33 UTC
119,Villa Zaita R,9.077455,-79.525563,2015-04-07 02:27:18 UTC,2015-04-15 15:46:24 UTC
122,Las Lajas R,9.088102,-79.531472,2015-04-07 02:27:18 UTC,2015-04-15 15:47:21 UTC
124,Escuela Francisco Beckman R,9.098908,-79.531934,2015-04-07 02:27:18 UTC,2015-04-15 15:48:08 UTC
123,Gonzalillo R,9.094575,-79.53203,2015-04-07 02:27:18 UTC,2015-04-15 15:47:50 UTC
125,La Cabima R,9.107696,-79.536526,2015-04-07 02:27:18 UTC,2015-04-15 15:48:48 UTC
100,San José I (Interamericana),9.043925,-79.507804,2015-04-07 02:27:18 UTC,2015-04-15 17:14:15 UTC
177,Inadeh R,9.069504,-79.399846,2015-04-07 02:27:18 UTC,2015-04-16 16:41:37 UTC
178,Inadeh I,9.069712,-79.398951,2015-04-07 02:27:18 UTC,2015-04-16 16:41:48 UTC
179,Torremolino R,9.069318,-79.393001,2015-04-07 02:27:19 UTC,2015-04-16 16:42:00 UTC
182,Pantanal I,9.074171,-79.388999,2015-04-07 02:27:19 UTC,2015-04-16 16:46:24 UTC
185,Leones R,9.082903,-79.384678,2015-04-07 02:27:19 UTC,2015-04-16 16:50:55 UTC
181,Aeropuerto I,9.071421,-79.389047,2015-04-07 02:27:19 UTC,2015-04-16 18:54:56 UTC
184,Bomberos de Tocumen I,9.080792,-79.384879,2015-04-07 02:27:19 UTC,2015-04-16 16:50:27 UTC
187,San Antonio R,9.088436,-79.382164,2015-04-07 02:27:19 UTC,2015-04-16 17:53:26 UTC
191,Corregiduría Tocumen R,9.096726,-79.375368,2015-04-07 02:27:19 UTC,2015-04-16 17:54:24 UTC
188,Calle Van Der Hans R,9.089744,-79.380856,2015-04-07 02:27:19 UTC,2015-04-16 17:53:33 UTC
189,Escuela Ricardo J. Alfaro R,9.091513,-79.379069,2015-04-07 02:27:19 UTC,2015-04-16 17:53:46 UTC
190,Calle Gelabert R,9.093638,-79.377009,2015-04-07 02:27:19 UTC,2015-04-16 17:54:06 UTC
192,Cruce de Tocumen R,9.097504,-79.370958,2015-04-07 02:27:19 UTC,2015-04-16 17:54:36 UTC
186,Morelo R,9.086725,-79.384407,2015-04-07 02:27:19 UTC,2015-04-16 17:52:34 UTC
183,La Morada R,9.077179,-79.386499,2015-04-07 02:27:19 UTC,2015-04-16 17:56:33 UTC
206,Metro Bus Patio 24 de Diciembre,9.10197,-79.358089,2015-04-07 02:27:19 UTC,2015-04-07 02:27:19 UTC
208,Piquera de Buses Balboa y Diablo,8.961698,-79.541168,2015-04-07 02:27:19 UTC,2015-04-07 02:27:19 UTC
209,Plaza 5 de Mayo,8.96055,-79.540443,2015-04-07 02:27:19 UTC,2015-04-07 02:27:19 UTC
215,Edificio Inteligente,8.984333,-79.516549,2015-04-07 02:27:19 UTC,2015-04-07 02:27:19 UTC
216,HSBC,8.980593,-79.522846,2015-04-07 02:27:19 UTC,2015-04-07 02:27:19 UTC
217,Plaza New York,8.982119,-79.520245,2015-04-07 02:27:19 UTC,2015-04-07 02:27:19 UTC
166,Severino Hernández I,9.029374,-79.496319,2015-04-07 02:27:18 UTC,2015-04-26 22:47:37 UTC
169,Coca Cola R,9.034632,-79.485318,2015-04-07 02:27:18 UTC,2015-04-26 23:20:07 UTC
167,Rooselvet I,9.030868,-79.491486,2015-04-07 02:27:18 UTC,2015-04-26 22:50:24 UTC
171,El Crisol I,9.043713,-79.472095,2015-04-07 02:27:18 UTC,2015-04-26 22:51:10 UTC
168,Coca Cola I,9.033615,-79.48742,2015-04-07 02:27:18 UTC,2015-04-26 22:56:53 UTC
170,Plaza Conquistador R,9.039991,-79.476809,2015-04-07 02:27:18 UTC,2015-04-26 22:59:09 UTC
173,Barriada San Antonio R,9.051667,-79.444923,2015-04-07 02:27:18 UTC,2015-04-26 23:09:31 UTC
176,Calle 139 Este I,9.059952,-79.427848,2015-04-07 02:27:18 UTC,2015-04-26 23:46:25 UTC
172,Los Pueblos R,9.050451,-79.450237,2015-04-07 02:27:18 UTC,2015-04-26 23:52:25 UTC
155,Condado del Rey R,9.024272,-79.524442,2015-04-07 02:27:18 UTC,2015-04-27 14:19:17 UTC
158,Los Libertadores R,9.026092,-79.520792,2015-04-07 02:27:18 UTC,2015-04-27 14:19:23 UTC
156,Condado del Rey I,9.024683,-79.524268,2015-04-07 02:27:18 UTC,2015-04-27 14:19:28 UTC
157,Los Libertadores I,9.025986,-79.52169,2015-04-07 02:27:18 UTC,2015-04-27 14:19:33 UTC
159,La Universidad Santa María la Antigua USMA I,9.028635,-79.519676,2015-04-07 02:27:18 UTC,2015-04-27 14:21:00 UTC
161,Linda Vista I,9.031259,-79.516892,2015-04-07 02:27:18 UTC,2015-04-27 15:32:11 UTC
130,Escuela Melchor Lasso I,9.11643,-79.544824,2015-04-07 02:27:18 UTC,2015-04-27 20:26:57 UTC
218,Hospital América R,9.002285,-79.516001,2015-04-07 02:27:19 UTC,2015-04-27 16:43:56 UTC
128,Judith R,9.113368,-79.543301,2015-04-07 02:27:18 UTC,2015-04-27 20:26:40 UTC
129,Judith I,9.113035,-79.543532,2015-04-07 02:27:18 UTC,2015-04-27 20:26:41 UTC
133,Calle 7 Ciudad Bolívar R,9.123559,-79.544304,2015-04-07 02:27:18 UTC,2015-04-28 22:53:37 UTC
132,Calle 4 Ciudad Bolívar R,9.121276,-79.544621,2015-04-07 02:27:18 UTC,2015-04-27 20:27:57 UTC
126,Meconsa R,9.109894,-79.541541,2015-04-07 02:27:18 UTC,2015-04-27 20:29:42 UTC
118,Villa Zaita I,9.07719,-79.525979,2015-04-07 02:27:18 UTC,2015-04-27 20:30:41 UTC
117,Milla 8 I,9.068603,-79.518989,2015-04-07 02:27:18 UTC,2015-04-27 20:31:13 UTC
110,San Isidro R,9.064116,-79.511592,2015-04-07 02:27:18 UTC,2015-04-27 20:33:04 UTC
109,Cruce San Isidro I,9.063804,-79.511769,2015-04-07 02:27:18 UTC,2015-04-27 20:32:56 UTC
111,Entrada de San Isidro (Policlínica) R,9.064614,-79.510208,2015-04-07 02:27:18 UTC,2015-04-28 12:51:37 UTC
106,Industrias de Buena Voluntad R,9.053189,-79.509388,2015-04-07 02:27:18 UTC,2015-04-27 20:35:08 UTC
112,Entrada de San Isidro (Policlínica) I,9.064916,-79.510417,2015-04-07 02:27:18 UTC,2015-04-28 12:51:50 UTC
108,Ojo de Agua R,9.05581,-79.50913,2015-04-07 02:27:18 UTC,2015-04-27 20:34:28 UTC
107,Ojo de Agua I,9.055789,-79.5095,2015-04-07 02:27:18 UTC,2015-04-27 20:34:39 UTC
105,Industrias de Buena Voluntad I,9.050819,-79.509612,2015-04-07 02:27:18 UTC,2015-04-28 12:57:54 UTC
127,Meconsa I,9.109798,-79.541885,2015-04-07 02:27:18 UTC,2015-04-27 21:00:51 UTC
150,Panatro I,9.114751,-79.567146,2015-04-07 02:27:18 UTC,2015-04-27 22:59:59 UTC
151,Agua Buena I,9.12143,-79.573846,2015-04-07 02:27:18 UTC,2015-04-27 23:03:38 UTC
152,La Cantera I,9.12732,-79.581297,2015-04-07 02:27:18 UTC,2015-04-27 23:05:07 UTC
135,Santa Teresa R,9.127002,-79.545457,2015-04-07 02:27:18 UTC,2015-04-28 16:49:45 UTC
136,Ciudad Bolívar R,9.130752,-79.547582,2015-04-07 02:27:18 UTC,2015-04-28 16:50:35 UTC
138,Villa Bolivariana R,9.136069,-79.552549,2015-04-07 02:27:18 UTC,2015-04-28 16:52:06 UTC
174,Estación de Parador,9.058999,-79.431678,2015-04-07 02:27:18 UTC,2015-05-03 16:45:46 UTC
164,Ministerio de Salud Veranillo MINSA I,9.031779,-79.500192,2015-04-07 02:27:18 UTC,2015-04-28 18:47:13 UTC
222,Calle 92 Este-I,9.014579,-79.49931,2015-04-07 02:27:19 UTC,2015-04-07 02:27:19 UTC
223,Calle 92 Este-R,9.014741,-79.498745,2015-04-07 02:27:19 UTC,2015-04-07 02:27:19 UTC
227,Monte Oscuro,9.020129,-79.49166,2015-04-07 02:27:19 UTC,2015-04-07 02:27:19 UTC
236,Santa Clara,9.034452,-79.473113,2015-04-07 02:27:19 UTC,2015-04-07 02:27:19 UTC
237,Ciuada deportiva Irving Saladino,9.03513,-79.472421,2015-04-07 02:27:19 UTC,2015-04-07 02:27:19 UTC
249,Entrada de San Antonio,9.053172,-79.44407,2015-04-07 02:27:19 UTC,2015-04-07 02:27:19 UTC
250,San Antonio,9.056,-79.445652,2015-04-07 02:27:19 UTC,2015-04-07 02:27:19 UTC
251,Iglesia San Antonio,9.058395,-79.447809,2015-04-07 02:27:19 UTC,2015-04-07 02:27:19 UTC
252,Altos de Cerro Viento,9.06081,-79.448254,2015-04-07 02:27:19 UTC,2015-04-07 02:27:19 UTC
253,Cerro Viento,9.064275,-79.447031,2015-04-07 02:27:19 UTC,2015-04-07 02:27:19 UTC
254,Camino Real,9.068566,-79.446618,2015-04-07 02:27:19 UTC,2015-04-07 02:27:19 UTC
255,Brisas Occidente,9.070892,-79.45769,2015-04-07 02:27:19 UTC,2015-04-07 02:27:19 UTC
256,Las Arcadas,9.070325,-79.454096,2015-04-07 02:27:19 UTC,2015-04-07 02:27:19 UTC
258,Calle 2 Occidente,9.06979,-79.461021,2015-04-07 02:27:19 UTC,2015-04-07 02:27:19 UTC
262,Calle Radial N,9.044483,-79.426593,2015-04-07 02:27:19 UTC,2015-04-07 02:27:19 UTC
269,Antigua Estacion de Buses de Don Bosco,9.0475,-79.410868,2015-04-07 02:27:19 UTC,2015-04-07 02:27:19 UTC
271,Calle 7,9.049887,-79.411948,2015-04-07 02:27:19 UTC,2015-04-07 02:27:19 UTC
286,Mañanitas,9.079733,-79.403719,2015-04-07 02:27:19 UTC,2015-04-07 02:27:19 UTC
287,Las Mañanas,9.079722,-79.407517,2015-04-07 02:27:19 UTC,2015-04-07 02:27:19 UTC
288,Los Nogales 2,9.0783,-79.41054,2015-04-07 02:27:19 UTC,2015-04-07 02:27:19 UTC
289,Los Nogales,9.077169,-79.411497,2015-04-07 02:27:19 UTC,2015-04-07 02:27:19 UTC
265,Calle Radial B I,9.048647,-79.43641,2015-04-07 02:27:19 UTC,2015-04-15 14:01:28 UTC
261,Calle Radial M I,9.042226,-79.427483,2015-04-07 02:27:19 UTC,2015-04-15 14:04:54 UTC
263,Calle Radial J R,9.044791,-79.429854,2015-04-07 02:27:19 UTC,2015-04-15 14:04:41 UTC
260,Calle Radial R I,9.041209,-79.423422,2015-04-07 02:27:19 UTC,2015-04-15 14:05:06 UTC
264,Concepción R,9.046634,-79.434232,2015-04-07 02:27:19 UTC,2015-04-15 14:07:14 UTC
210,Abastos R,8.965701,-79.546619,2015-04-07 02:27:19 UTC,2015-04-15 16:28:20 UTC
257,Camino Real (Bethanía),9.009114,-79.527417,2015-04-07 02:27:19 UTC,2015-04-15 14:39:21 UTC
211,Abastos I,8.966148,-79.546624,2015-04-07 02:27:19 UTC,2015-04-15 16:28:39 UTC
213,Policía Nacional I,8.966085,-79.55137,2015-04-07 02:27:19 UTC,2015-04-15 16:55:01 UTC
204,El Coloso R,9.078557,-79.359698,2015-04-07 02:27:19 UTC,2015-04-16 17:47:16 UTC
195,La Bajada I,9.091143,-79.365814,2015-04-07 02:27:19 UTC,2015-04-16 17:55:21 UTC
194,La Bajada R,9.091264,-79.366028,2015-04-07 02:27:19 UTC,2015-04-16 17:49:08 UTC
197,La Siesta Vieja R,9.082429,-79.366844,2015-04-07 02:27:19 UTC,2015-04-16 17:48:00 UTC
199,Tocumen i,9.077362,-79.364613,2015-04-07 02:27:19 UTC,2015-04-16 17:47:43 UTC
200,Tocumen R,9.077079,-79.363893,2015-04-07 02:27:19 UTC,2015-04-16 17:47:23 UTC
205,Estación La Siesta,9.080501,-79.354779,2015-04-07 02:27:19 UTC,2015-04-16 17:43:21 UTC
203,El Coloso I,9.079002,-79.35987,2015-04-07 02:27:19 UTC,2015-04-16 17:47:32 UTC
285,Mañanitas R,9.079844,-79.399647,2015-04-07 02:27:19 UTC,2015-04-16 20:22:59 UTC
196,El Brillante I,9.086709,-79.366077,2015-04-07 02:27:19 UTC,2015-04-16 17:48:17 UTC
207,Colegio Nacional,8.959535,-79.542603,2015-04-07 02:27:19 UTC,2015-04-17 15:43:34 UTC
290,Santa Mónica,9.073545,-79.413482,2015-04-07 02:27:19 UTC,2015-04-07 02:27:19 UTC
291,Parque Real,9.071713,-79.414265,2015-04-07 02:27:19 UTC,2015-04-07 02:27:19 UTC
299,Belén,9.082805,-79.39748,2015-04-07 02:27:19 UTC,2015-04-07 02:27:19 UTC
300,Villa Belén,9.083621,-79.394787,2015-04-07 02:27:19 UTC,2015-04-07 02:27:19 UTC
301,Las Trancas,9.085125,-79.391906,2015-04-07 02:27:19 UTC,2015-04-07 02:27:19 UTC
280,Colonias del Prado,9.062034,-79.416084,2015-04-07 02:27:19 UTC,2015-04-27 00:11:57 UTC
272,Calle 6 R,9.05127,-79.414405,2015-04-07 02:27:19 UTC,2015-05-03 16:40:13 UTC
282,Vereda 1 I,9.044436,-79.40859,2015-04-07 02:27:19 UTC,2015-05-03 16:41:12 UTC
275,Bello Horizonte I,9.053103,-79.41014,2015-04-07 02:27:19 UTC,2015-04-27 00:13:03 UTC
277,Los Caobos,9.057516,-79.412956,2015-04-07 02:27:19 UTC,2015-04-27 00:18:04 UTC
276,Parada de Santa Rita,9.055068,-79.411401,2015-04-07 02:27:19 UTC,2015-04-27 00:17:44 UTC
274,Los Sauces R,9.052636,-79.417913,2015-04-07 02:27:19 UTC,2015-05-03 16:41:54 UTC
267,Calle Circunvalación I,9.045644,-79.413198,2015-04-07 02:27:19 UTC,2015-05-03 21:47:40 UTC
283,Vereda 0 R,9.043652,-79.409899,2015-04-07 02:27:19 UTC,2015-05-03 16:41:39 UTC
278,Calle 3B R,9.056827,-79.417977,2015-04-07 02:27:19 UTC,2015-05-03 16:43:29 UTC
244,San Fernando I,9.041946,-79.457084,2015-04-07 02:27:19 UTC,2015-05-03 16:47:24 UTC
279,Calle 1C R,9.059232,-79.41942,2015-04-07 02:27:19 UTC,2015-05-03 16:43:38 UTC
281,Terremar I,9.049686,-79.408032,2015-04-07 02:27:19 UTC,2015-05-03 16:40:46 UTC
246,El Pinate I,9.045824,-79.445776,2015-04-07 02:27:19 UTC,2015-04-27 16:56:31 UTC
219,Hospital América I,9.00138,-79.516819,2015-04-07 02:27:19 UTC,2015-04-27 16:44:05 UTC
224,Santa Elena I,9.017538,-79.494525,2015-04-07 02:27:19 UTC,2015-04-27 16:49:03 UTC
221,12 de Octubre R,9.009792,-79.505509,2015-04-07 02:27:19 UTC,2015-04-27 16:48:18 UTC
225,Escuela República de Haití R,9.018598,-79.492672,2015-04-07 02:27:19 UTC,2015-04-27 16:49:33 UTC
226,Escuela República de Haití I,9.018762,-79.492795,2015-04-07 02:27:19 UTC,2015-04-27 16:49:41 UTC
229,Torres Vía España R,9.021692,-79.489638,2015-04-07 02:27:19 UTC,2015-04-27 16:49:53 UTC
228,Torres Vía España I,9.021528,-79.490115,2015-04-07 02:27:19 UTC,2015-04-27 16:49:58 UTC
245,Villa Venus I,9.044937,-79.451166,2015-04-07 02:27:19 UTC,2015-04-27 16:54:38 UTC
230,El Balboa R,9.023991,-79.486481,2015-04-07 02:27:19 UTC,2015-04-27 16:50:20 UTC
248,J. J. Vallarino I,9.055137,-79.434519,2015-04-07 02:27:19 UTC,2015-04-27 17:26:05 UTC
231,Las Marcasas R,9.027191,-79.481009,2015-04-07 02:27:19 UTC,2015-04-27 16:51:25 UTC
233,Plaza Carolina R,9.029506,-79.477227,2015-04-07 02:27:19 UTC,2015-04-27 16:51:02 UTC
234,Campo Limbergh R,9.032781,-79.473853,2015-04-07 02:27:19 UTC,2015-04-27 16:51:59 UTC
235,Campo Limbergh I,9.032604,-79.474404,2015-04-07 02:27:19 UTC,2015-04-27 16:52:41 UTC
238,Estadio Rommel Fernández R,9.036669,-79.470125,2015-04-07 02:27:19 UTC,2015-04-27 16:53:12 UTC
243,San Pedro Sur I,9.040611,-79.459801,2015-04-07 02:27:19 UTC,2015-04-27 16:59:02 UTC
247,Juan Díaz I,9.048208,-79.439151,2015-04-07 02:27:19 UTC,2015-04-27 16:55:59 UTC
259,Versalles I,9.041575,-79.419887,2015-04-07 02:27:19 UTC,2015-05-03 21:13:20 UTC
242,San Pedro Sur R,9.040801,-79.458683,2015-04-07 02:27:19 UTC,2015-04-27 16:58:40 UTC
232,Las Marcasas I,9.027509,-79.481363,2015-04-07 02:27:19 UTC,2015-04-27 17:02:02 UTC
240,San Cristobal Sur R,9.038248,-79.464396,2015-04-07 02:27:19 UTC,2015-04-27 17:00:39 UTC
239,Policlínica Juan Díaz I,9.037202,-79.469516,2015-04-07 02:27:19 UTC,2015-04-27 19:49:28 UTC
294,Rana de Oro I,9.071374,-79.426571,2015-04-07 02:27:19 UTC,2015-04-28 14:39:33 UTC
293,San Joaquín R,9.069859,-79.423884,2015-04-07 02:27:19 UTC,2015-04-28 14:39:18 UTC
295,Villa Lobos R,9.070208,-79.42818,2015-04-07 02:27:19 UTC,2015-04-28 14:40:42 UTC
292,Estación de Buses de Pedregal,9.067536,-79.420541,2015-04-07 02:27:19 UTC,2015-04-28 14:56:20 UTC
297,Nazareno I,9.065133,-79.431678,2015-04-07 02:27:19 UTC,2015-04-28 14:44:25 UTC
273,Calle 5C R,9.050698,-79.416717,2015-04-07 02:27:19 UTC,2015-05-03 16:38:21 UTC
266,Cecilio Castillero R,9.043615,-79.416153,2015-04-07 02:27:19 UTC,2015-05-03 21:46:58 UTC
268,Avenida Primera I,9.047551,-79.410231,2015-04-07 02:27:19 UTC,2015-05-03 21:20:19 UTC
270,Calle Escandinavos R,9.047874,-79.410682,2015-04-07 02:27:19 UTC,2015-05-03 21:57:38 UTC
302,Mañanitas Interna,9.086142,-79.389047,2015-04-07 02:27:19 UTC,2015-04-07 02:27:19 UTC
303,T de Torrijos-Carter,9.07202,-79.489388,2015-04-07 02:27:19 UTC,2015-04-07 02:27:19 UTC
304,El Mirador,9.075633,-79.491212,2015-04-07 02:27:19 UTC,2015-04-07 02:27:19 UTC
305,Calle C-5,9.077349,-79.491346,2015-04-07 02:27:19 UTC,2015-04-07 02:27:19 UTC
306,Estación Torrijos-Carter,9.078381,-79.492007,2015-04-07 02:27:19 UTC,2015-04-07 02:27:19 UTC
307,Centro de Salud de Torrijos-Carter,9.080495,-79.491727,2015-04-07 02:27:19 UTC,2015-04-07 02:27:19 UTC
308,Estación Santa Librada,9.080231,-79.493315,2015-04-07 02:27:19 UTC,2015-04-07 02:27:19 UTC
309,Santa Librada,9.080543,-79.494254,2015-04-07 02:27:19 UTC,2015-04-07 02:27:19 UTC
310,Santa Marta,9.078165,-79.496223,2015-04-07 02:27:19 UTC,2015-04-07 02:27:19 UTC
311,Guandú,9.076321,-79.497038,2015-04-07 02:27:19 UTC,2015-04-07 02:27:19 UTC
312,Calle C-10,9.075219,-79.498605,2015-04-07 02:27:19 UTC,2015-04-07 02:27:19 UTC
313,Santa Librada 4 Etapa,9.07434,-79.500997,2015-04-07 02:27:19 UTC,2015-04-07 02:27:19 UTC
314,Escuela Santa Librada,9.07345,-79.503164,2015-04-07 02:27:19 UTC,2015-04-07 02:27:19 UTC
315,Caja de Ahorros,9.074224,-79.504452,2015-04-07 02:27:19 UTC,2015-04-07 02:27:19 UTC
316,Santa Librada,9.072332,-79.505619,2015-04-07 02:27:19 UTC,2015-04-07 02:27:19 UTC
321,del Cruce de Santa Librada,9.07416,-79.508035,2015-04-07 02:27:19 UTC,2015-04-07 02:27:19 UTC
322,Santa Librada 2 Etapa,9.075272,-79.50921,2015-04-07 02:27:19 UTC,2015-04-07 02:27:19 UTC
324,Santa Librada 3 Etapa,9.078022,-79.511581,2015-04-07 02:27:19 UTC,2015-04-07 02:27:19 UTC
325,Santa Librada 7 Etapa,9.079568,-79.509645,2015-04-07 02:27:19 UTC,2015-04-07 02:27:19 UTC
326,Calle Las Peras,9.076851,-79.507392,2015-04-07 02:27:19 UTC,2015-04-07 02:27:19 UTC
327,5ª Etapa Santa Librada,9.078122,-79.506147,2015-04-07 02:27:19 UTC,2015-04-07 02:27:19 UTC
328,Santa Rita,9.076459,-79.503712,2015-04-07 02:27:19 UTC,2015-04-07 02:27:19 UTC
332,Club X,9.016031,-79.520762,2015-04-07 02:27:19 UTC,2015-04-07 02:27:19 UTC
333,Castilla de Oro,9.01468,-79.524338,2015-04-07 02:27:19 UTC,2015-04-07 02:27:19 UTC
334,Calle 72 Oeste,9.009146,-79.530314,2015-04-07 02:27:19 UTC,2015-04-07 02:27:19 UTC
335,FEMSA,9.006971,-79.531255,2015-04-07 02:27:19 UTC,2015-04-07 02:27:19 UTC
348,Estacion de Buses de Ruta Interna Samaria,9.04833,-79.499959,2015-04-07 02:27:19 UTC,2015-04-07 02:27:19 UTC
351,Entrada de Calle M,9.038714,-79.493227,2015-04-07 02:27:19 UTC,2015-04-07 02:27:19 UTC
353,ruta interna de Moya,9.037509,-79.495844,2015-04-07 02:27:19 UTC,2015-04-07 02:27:19 UTC
355,PARADA 5,9.035408,-79.492006,2015-04-07 02:27:19 UTC,2015-04-07 02:27:19 UTC
356,PARADA 6,9.037739,-79.492465,2015-04-07 02:27:19 UTC,2015-04-07 02:27:19 UTC
357,Clayton Externa R,8.993446,-79.581591,2015-04-07 02:27:19 UTC,2015-04-07 02:27:19 UTC
358,Entrada Ciudad del Saber,8.999747,-79.58583,2015-04-07 02:27:19 UTC,2015-04-13 17:06:23 UTC
359,Entrada Ciudad del Saber R,8.999662,-79.586023,2015-04-07 02:27:19 UTC,2015-04-13 17:06:12 UTC
361,Esclusas de Miraflores,8.9975,-79.590624,2015-04-07 02:27:19 UTC,2015-04-13 17:00:43 UTC
362,Calle Antón,8.979265,-79.569615,2015-04-07 02:27:19 UTC,2015-04-13 17:25:53 UTC
363,San Vicente,8.979305,-79.569138,2015-04-07 02:27:19 UTC,2015-04-07 02:27:19 UTC
364,Clayton Externa,8.99311,-79.581034,2015-04-07 02:27:19 UTC,2015-04-07 02:27:19 UTC
365,Meduca-R,8.985273,-79.574536,2015-04-07 02:27:19 UTC,2015-04-07 02:27:19 UTC
366,Meduca-I,8.985662,-79.574535,2015-04-07 02:27:19 UTC,2015-04-07 02:27:19 UTC
367,Corozal R,8.984381,-79.573489,2015-04-07 02:27:19 UTC,2015-04-07 02:27:19 UTC
368,Corozal ,8.983265,-79.572556,2015-04-07 02:27:19 UTC,2015-04-07 02:27:19 UTC
369,Diablo,8.97327,-79.565343,2015-04-07 02:27:19 UTC,2015-04-13 16:56:46 UTC
370,C. Ascanio Villalaz,8.959476,-79.557291,2015-04-07 02:27:19 UTC,2015-04-07 02:27:19 UTC
371,Teatro Balboa I,8.955801,-79.558634,2015-04-07 02:27:19 UTC,2015-04-13 16:35:00 UTC
372,City Bank,8.954134,-79.557419,2015-04-07 02:27:19 UTC,2015-04-07 02:27:19 UTC
373,Calle Van Hook I,8.940739,-79.551573,2015-04-07 02:27:19 UTC,2015-04-13 16:35:57 UTC
374,Figali-I,8.93622,-79.545328,2015-04-07 02:27:19 UTC,2015-04-07 02:27:19 UTC
375,Figali R,8.940604,-79.546574,2015-04-07 02:27:19 UTC,2015-04-13 16:36:42 UTC
376,Museo Frank Gehry,8.933485,-79.545139,2015-04-07 02:27:19 UTC,2015-04-07 02:27:19 UTC
377,Smithsonian,8.915764,-79.5316,2015-04-07 02:27:19 UTC,2015-04-07 02:27:19 UTC
378,Isla Perico R,8.915041,-79.527221,2015-04-07 02:27:19 UTC,2015-04-13 16:37:38 UTC
379,Isla Flamenco,8.910833,-79.522515,2015-04-07 02:27:19 UTC,2015-04-07 02:27:19 UTC
380,Iglesia del Carmen,8.980715,-79.527646,2015-04-07 02:27:19 UTC,2015-04-07 02:27:19 UTC
381,Crowne Plaza,8.982484,-79.528757,2015-04-07 02:27:19 UTC,2015-04-07 02:27:19 UTC
382,Manuel Espinoza Batista,8.985652,-79.531276,2015-04-07 02:27:19 UTC,2015-04-07 02:27:19 UTC
383,Markez-W-I,9.000191,-79.531972,2015-04-07 02:27:19 UTC,2015-04-07 02:27:19 UTC
384,Calle 63 Oeste,9.000111,-79.526079,2015-04-07 02:27:19 UTC,2015-04-07 02:27:19 UTC
385,Pato Brinks,9.000836,-79.529058,2015-04-07 02:27:19 UTC,2015-04-07 02:27:19 UTC
386,Escritor Ricardo Miró,8.99946,-79.523232,2015-04-07 02:27:19 UTC,2015-04-07 02:27:19 UTC
387,Galerías Obarrio,8.991215,-79.520271,2015-04-07 02:27:19 UTC,2015-04-07 02:27:19 UTC
388,Escuela Profesional,8.98287,-79.514206,2015-04-07 02:27:19 UTC,2015-04-07 02:27:19 UTC
391,Rhinos,8.97851,-79.52713,2015-04-07 02:27:19 UTC,2015-04-07 02:27:19 UTC
392,Federico Boyd,8.976767,-79.526873,2015-04-07 02:27:19 UTC,2015-04-07 02:27:19 UTC
393,Melchi,8.958688,-79.539559,2015-04-07 02:27:19 UTC,2015-04-07 02:27:19 UTC
394,Mercado de Mariscos,8.958206,-79.538999,2015-04-07 02:27:19 UTC,2015-04-07 02:27:19 UTC
395,Calle 12,8.957565,-79.540496,2015-04-07 02:27:19 UTC,2015-04-07 02:27:19 UTC
396,Escuela José de Malambo,8.953716,-79.540753,2015-04-07 02:27:19 UTC,2015-04-07 02:27:19 UTC
397,Parque de Santa Ana,8.953613,-79.538718,2015-04-07 02:27:19 UTC,2015-04-07 02:27:19 UTC
398,Salsipuedes,8.955078,-79.538037,2015-04-07 02:27:19 UTC,2015-04-07 02:27:19 UTC
344,La Vilca R,9.063004,-79.497585,2015-04-07 02:27:19 UTC,2015-04-28 12:23:18 UTC
339,Policía Mano de Piedra I,9.063316,-79.490263,2015-04-07 02:27:19 UTC,2015-04-28 12:34:53 UTC
336,Estación Mano de Piedra,9.05558,-79.489986,2015-04-07 02:27:19 UTC,2015-04-28 12:46:56 UTC
341,Valle de Urracá R,9.068026,-79.488101,2015-04-07 02:27:19 UTC,2015-04-28 12:33:50 UTC
340,La Paz R,9.06437,-79.488627,2015-04-07 02:27:19 UTC,2015-04-28 12:40:54 UTC
337,Corregiduría de Mano de Piedra R,9.059216,-79.492291,2015-04-07 02:27:19 UTC,2015-04-28 12:28:26 UTC
343,Cerro Batea I,9.063618,-79.495729,2015-04-07 02:27:19 UTC,2015-04-28 12:31:17 UTC
342,Escuela Torrijos Carter I,9.069059,-79.492591,2015-04-07 02:27:19 UTC,2015-04-28 12:32:30 UTC
329,El Valle San Isidro I,9.067914,-79.507086,2015-04-07 02:27:19 UTC,2015-04-28 12:52:32 UTC
346,La Fula I,9.067395,-79.501711,2015-04-07 02:27:19 UTC,2015-04-28 12:49:24 UTC
347,Entrada El Pueblito R,9.06917,-79.503588,2015-04-07 02:27:19 UTC,2015-04-28 12:50:06 UTC
350,Estación de Buses de Veranillo,9.049455,-79.505011,2015-04-07 02:27:19 UTC,2015-04-28 18:14:34 UTC
319,El Pueblito R,9.069334,-79.505782,2015-04-07 02:27:19 UTC,2015-04-28 12:53:11 UTC
317,Policlinica Generoso Guardia R,9.071495,-79.505385,2015-04-07 02:27:19 UTC,2015-04-28 12:54:04 UTC
352,Policlínica María Valdés R,9.037951,-79.494683,2015-04-07 02:27:19 UTC,2015-04-28 18:37:47 UTC
354,Veranillo Circunvalación R,9.037368,-79.496636,2015-04-07 02:27:19 UTC,2015-04-28 18:37:14 UTC
390,Aquilino de la Guardia I,8.975808,-79.521891,2015-04-07 02:27:19 UTC,2015-04-28 22:52:31 UTC
323,Escuela Santiago de la Guardia I,9.073482,-79.511399,2015-04-07 02:27:19 UTC,2015-04-28 20:36:32 UTC
330,El Valle,9.075076,-79.514306,2015-04-07 02:27:19 UTC,2015-04-28 20:40:28 UTC
318,Entrada del Valle de San Isidro R,9.071257,-79.506437,2015-04-07 02:27:19 UTC,2015-04-28 20:59:27 UTC
399,Avenida B,8.956639,-79.53864,2015-04-07 02:27:19 UTC,2015-04-07 02:27:19 UTC
402,Boulevard Pacífica,8.977269,-79.509002,2015-04-07 02:27:19 UTC,2015-04-07 02:27:19 UTC
404,Vía Brasil,8.984952,-79.513596,2015-04-07 02:27:19 UTC,2015-04-07 02:27:19 UTC
405,IDAAN,8.989931,-79.516248,2015-04-07 02:27:19 UTC,2015-04-07 02:27:19 UTC
407,Calle Ernestina Sucre Tapia,8.98973,-79.521009,2015-04-07 02:27:19 UTC,2015-04-07 02:27:19 UTC
408,El Paical,8.99608,-79.53058,2015-04-07 02:27:19 UTC,2015-04-07 02:27:19 UTC
409,Vía Grecia,8.99435,-79.525739,2015-04-07 02:27:19 UTC,2015-04-07 02:27:19 UTC
410,El Carmen,8.99261,-79.523028,2015-04-07 02:27:19 UTC,2015-04-07 02:27:19 UTC
411,Parque Andrés Bello,8.989079,-79.526005,2015-04-07 02:27:19 UTC,2015-04-07 02:27:19 UTC
412,Monumento a Einstein,8.988454,-79.529007,2015-04-07 02:27:19 UTC,2015-04-07 02:27:19 UTC
413,Vía Argentina,8.987628,-79.530628,2015-04-07 02:27:19 UTC,2015-04-07 02:27:19 UTC
414,4 de Julio,8.959775,-79.542749,2015-04-07 02:27:19 UTC,2015-04-07 02:27:19 UTC
415,Instituto Nacional,8.957818,-79.54205,2015-04-07 02:27:19 UTC,2015-04-07 02:27:19 UTC
416,Escuela Justo Arosemena,8.954995,-79.542912,2015-04-07 02:27:19 UTC,2015-04-07 02:27:19 UTC
417,Junta Comunal El Chorrillo,8.953674,-79.542543,2015-04-07 02:27:19 UTC,2015-04-07 02:27:19 UTC
418,Central T Chorrillo,8.952696,-79.541113,2015-04-07 02:27:19 UTC,2015-04-07 02:27:19 UTC
419,Patio Pinel,8.952177,-79.543191,2015-04-07 02:27:19 UTC,2015-04-07 02:27:19 UTC
420,Cementerio Amador,8.952284,-79.545452,2015-04-07 02:27:19 UTC,2015-04-07 02:27:19 UTC
421,Parque Amelia Denis,8.951077,-79.546253,2015-04-07 02:27:19 UTC,2015-04-07 02:27:19 UTC
422,Calle 21 Oeste,8.951019,-79.543624,2015-04-07 02:27:19 UTC,2015-04-07 02:27:19 UTC
423,Parque de los Aburridos,8.951507,-79.542258,2015-04-07 02:27:19 UTC,2015-04-07 02:27:19 UTC
424,Universidad Nacional R,8.984301,-79.535183,2015-04-07 02:27:19 UTC,2015-04-07 02:27:19 UTC
425,Estación Iglesia del Carmen,8.982366,-79.527271,2015-04-07 02:27:19 UTC,2015-04-07 02:27:19 UTC
426,Artes y oficios,8.987747,-79.533052,2015-04-07 02:27:19 UTC,2015-04-07 02:27:19 UTC
427,Universidad Interamericana,8.984235,-79.528908,2015-04-07 02:27:19 UTC,2015-04-07 02:27:19 UTC
428,Calle Eusebio A. Morales,8.985912,-79.527668,2015-04-07 02:27:19 UTC,2015-04-07 02:27:19 UTC
429,Calle Guatemala,8.986318,-79.524986,2015-04-07 02:27:19 UTC,2015-04-07 02:27:19 UTC
430,Calle José de Fábrega,8.982974,-79.531872,2015-04-07 02:27:19 UTC,2015-04-07 02:27:19 UTC
431,Complejo Hospitalario Dr. Armulfo Arias Madrid,8.981308,-79.534259,2015-04-07 02:27:19 UTC,2015-04-07 02:27:19 UTC
432,UDELAS,8.97189,-79.562706,2015-04-07 02:27:19 UTC,2015-04-07 02:27:19 UTC
433,ANAM,8.974408,-79.558746,2015-04-07 02:27:19 UTC,2015-04-07 02:27:19 UTC
434,Saint Mary,8.979354,-79.559224,2015-04-07 02:27:19 UTC,2015-04-07 02:27:19 UTC
435,Calle Evans,8.982259,-79.557916,2015-04-07 02:27:19 UTC,2015-04-07 02:27:19 UTC
436,Ave. Canfield,8.988417,-79.555996,2015-04-07 02:27:19 UTC,2015-04-07 02:27:19 UTC
437,Centro Comercial Country,8.995283,-79.558462,2015-04-07 02:27:19 UTC,2015-04-07 02:27:19 UTC
438,Embajada Estados Unidos,8.998923,-79.559216,2015-04-07 02:27:19 UTC,2015-04-07 02:27:19 UTC
439,Colegio Javier,9.00383,-79.562816,2015-04-07 02:27:19 UTC,2015-04-07 02:27:19 UTC
440,Caja Seguro Social Clayton,9.005451,-79.566872,2015-04-07 02:27:19 UTC,2015-04-13 17:31:39 UTC
441,Zona Azúl,9.005905,-79.572972,2015-04-07 02:27:19 UTC,2015-04-13 17:31:51 UTC
442,Ave. Muir,9.005818,-79.576162,2015-04-07 02:27:19 UTC,2015-04-07 02:27:19 UTC
443,Centro Deportivo Clayton,9.002734,-79.581829,2015-04-07 02:27:19 UTC,2015-04-07 02:27:19 UTC
444,Ciudad del Saber,8.999598,-79.585304,2015-04-07 02:27:19 UTC,2015-04-13 17:03:56 UTC
445,Calle 134 Este,9.051614,-79.434981,2015-04-07 02:27:19 UTC,2015-04-07 02:27:19 UTC
446,Villa Cáceres,9.02087,-79.524255,2015-04-07 02:27:19 UTC,2015-04-07 02:27:19 UTC
447,Calle 76B Oeste,9.017953,-79.522478,2015-04-07 02:27:19 UTC,2015-04-07 02:27:19 UTC
448,Calle 74 Oeste,9.012077,-79.521657,2015-04-07 02:27:19 UTC,2015-04-07 02:27:19 UTC
452,Calle Los Rayitos,9.137158,-79.550272,2015-04-07 02:27:19 UTC,2015-04-07 02:27:19 UTC
453,Entrada El Amanecer,9.138408,-79.552101,2015-04-07 02:27:19 UTC,2015-04-07 02:27:19 UTC
455,M/S Rayitos,9.140158,-79.55245,2015-04-07 02:27:19 UTC,2015-04-07 02:27:19 UTC
456,Ciudad Bolívar I,9.131973,-79.548729,2015-04-07 02:27:19 UTC,2015-04-07 02:27:19 UTC
457,Calle Ola,9.12547,-79.555183,2015-04-07 02:27:19 UTC,2015-04-07 02:27:19 UTC
458,Estación La Cabima,9.110105,-79.538522,2015-04-07 02:27:19 UTC,2015-04-07 02:27:19 UTC
459,Albrook,8.974218,-79.551637,2015-04-13 15:01:10 UTC,2015-04-13 15:01:10 UTC
460,Calle Van Hook R,8.940866,-79.552732,2015-04-13 16:36:23 UTC,2015-04-13 16:36:23 UTC
461,Diablo R,8.973227,-79.565628,2015-04-13 16:57:10 UTC,2015-04-13 16:57:10 UTC
462,Miraflores I,9.003392,-79.589242,2015-04-13 17:00:15 UTC,2015-04-13 17:00:15 UTC
463,Miraflores R,9.003683,-79.589317,2015-04-13 17:02:52 UTC,2015-04-13 17:02:52 UTC
389,Paitilla I,8.976109,-79.516652,2015-04-07 02:27:19 UTC,2015-04-14 22:54:39 UTC
464,Paitilla R,8.976073,-79.51605,2015-04-14 22:55:05 UTC,2015-04-14 22:55:05 UTC
60,Cervecería Nacional R,8.989771,-79.533353,2015-04-07 02:27:18 UTC,2015-04-14 22:57:26 UTC
465,Calle Radial B R,9.049124,-79.436833,2015-04-15 14:01:51 UTC,2015-04-15 14:01:51 UTC
467,Calle Radial J I,9.044653,-79.429951,2015-04-15 14:04:30 UTC,2015-04-15 14:04:30 UTC
466,Concepción I,9.046496,-79.434441,2015-04-15 14:02:55 UTC,2015-04-15 14:07:26 UTC
331,Calle Plutón,9.042592,-79.423371,2015-04-07 02:27:19 UTC,2015-04-15 14:11:31 UTC
469,Chivo R,9.072836,-79.523356,2015-04-15 15:46:04 UTC,2015-04-15 15:46:04 UTC
121,El Palmar R,9.08557,-79.528125,2015-04-07 02:27:18 UTC,2015-04-15 15:47:00 UTC
470,Villa Flora R,9.103707,-79.533913,2015-04-15 15:48:37 UTC,2015-04-15 15:48:37 UTC
472,Bella Vista I,8.974165,-79.534364,2015-04-15 16:34:33 UTC,2015-04-15 16:34:33 UTC
471,Martín Sosa R,8.977366,-79.53446,2015-04-15 16:32:23 UTC,2015-04-15 16:35:13 UTC
403,Circunvalación Vía Israel R,8.983688,-79.512382,2015-04-07 02:27:19 UTC,2015-04-16 19:28:24 UTC
400,Hospital Punta Pacífica,8.982258,-79.510716,2015-04-07 02:27:19 UTC,2015-04-16 19:30:16 UTC
401,San Sebastián I,8.981239,-79.510798,2015-04-07 02:27:19 UTC,2015-04-16 19:28:53 UTC
473,Puente Roque R,9.128538,-79.614744,2015-04-15 16:36:12 UTC,2015-04-15 16:36:12 UTC
474,Puente Roque I,9.128919,-79.61586,2015-04-15 16:36:44 UTC,2015-04-15 16:36:44 UTC
475,San José R,9.13697,-79.620023,2015-04-15 16:38:43 UTC,2015-04-15 16:38:43 UTC
476,San José I,9.136334,-79.62131,2015-04-15 16:38:59 UTC,2015-04-15 16:38:59 UTC
477,Tropigas R,9.144575,-79.621605,2015-04-15 16:39:15 UTC,2015-04-15 16:40:02 UTC
479,Chilibre Centro R,9.153579,-79.621396,2015-04-15 16:40:27 UTC,2015-04-15 16:40:27 UTC
480,Chilibre Centro I,9.153621,-79.622684,2015-04-15 16:40:42 UTC,2015-04-15 16:40:42 UTC
481,Escuela Rooselvet I,9.16184,-79.621439,2015-04-15 16:41:36 UTC,2015-04-15 16:41:36 UTC
482,Escuela Rooselvet R,9.161798,-79.619915,2015-04-15 16:43:52 UTC,2015-04-15 16:43:52 UTC
486,Agua Bendita I,9.168958,-79.618177,2015-04-15 16:45:47 UTC,2015-04-15 16:45:47 UTC
485,Agua Bendita R,9.171299,-79.616396,2015-04-15 16:45:27 UTC,2015-04-15 16:46:07 UTC
487,Villa Linda R,9.1801,-79.615045,2015-04-15 16:46:31 UTC,2015-04-15 16:46:31 UTC
488,Villa Linda I,9.1801,-79.616053,2015-04-15 16:47:04 UTC,2015-04-15 16:47:04 UTC
489,Chilibrillo R,9.186392,-79.615946,2015-04-15 16:47:23 UTC,2015-04-15 16:47:23 UTC
478,Tropigas I,9.144559,-79.622061,2015-04-15 16:39:40 UTC,2015-04-27 23:06:20 UTC
101,San José (Interamericana) R,9.044743,-79.507064,2015-04-07 02:27:18 UTC,2015-04-28 12:58:36 UTC
450,T de Valle de Urracá I,9.071402,-79.48895,2015-04-07 02:27:19 UTC,2015-04-28 12:33:42 UTC
449,Tortimasa I,9.065886,-79.493905,2015-04-07 02:27:19 UTC,2015-04-28 12:31:49 UTC
468,Escuela Rubiano R,9.036086,-79.505863,2015-04-15 15:42:48 UTC,2015-04-28 13:00:42 UTC
454,Avenida Rayitos,9.138521,-79.550908,2015-04-07 02:27:19 UTC,2015-04-28 17:15:00 UTC
490,Chilibrillo I,9.186127,-79.616375,2015-04-15 16:47:44 UTC,2015-04-15 16:47:44 UTC
492,Madden R,9.199037,-79.623671,2015-04-15 16:49:29 UTC,2015-04-15 16:49:29 UTC
493,Madden I,9.198693,-79.624143,2015-04-15 16:49:44 UTC,2015-04-15 16:49:55 UTC
495,Villa Unida R,9.193911,-79.619207,2015-04-15 16:51:02 UTC,2015-04-15 16:51:02 UTC
494,Villa Unida I,9.194007,-79.61991,2015-04-15 16:50:30 UTC,2015-04-15 16:51:16 UTC
496,Buen Paisaje I,9.18887,-79.617727,2015-04-15 16:51:59 UTC,2015-04-15 16:51:59 UTC
497,Buen Paisaje R,9.189347,-79.616933,2015-04-15 16:52:24 UTC,2015-04-15 16:52:24 UTC
212,Policía Nacional R,8.96563,-79.549224,2015-04-07 02:27:19 UTC,2015-04-15 16:54:53 UTC
484,Las Vegas R,9.164647,-79.619443,2015-04-15 16:44:39 UTC,2015-04-15 16:59:37 UTC
532,La Doña R,9.10287,-79.370105,2015-04-16 20:00:59 UTC,2015-04-16 20:24:50 UTC
483,Las Vegas I,9.165044,-79.620034,2015-04-15 16:44:22 UTC,2015-04-15 16:59:55 UTC
491,Chagres I,9.201283,-79.625731,2015-04-15 16:49:08 UTC,2015-04-15 17:02:32 UTC
498,Chagres R,9.20133,-79.625564,2015-04-15 17:02:36 UTC,2015-04-15 17:03:15 UTC
499,La Cuchilla de Calidonia,8.968082,-79.539353,2015-04-15 17:08:13 UTC,2015-04-15 17:08:13 UTC
180,Aeropuerto R,9.070876,-79.388318,2015-04-07 02:27:19 UTC,2015-04-16 16:42:13 UTC
500,Pantanal R,9.074049,-79.388822,2015-04-16 16:45:41 UTC,2015-04-16 16:46:34 UTC
502,Bomberos de Tocumen R,9.080808,-79.385367,2015-04-16 16:50:44 UTC,2015-04-16 16:50:44 UTC
503,Leones I,9.0828,-79.384444,2015-04-16 16:51:28 UTC,2015-04-16 16:51:28 UTC
534,24 de Diciembre R,9.102854,-79.367364,2015-04-16 20:04:08 UTC,2015-04-16 20:29:44 UTC
511,La Siesta Vieja I,9.082434,-79.366522,2015-04-16 17:01:16 UTC,2015-04-16 17:47:50 UTC
512,El Brillante R,9.086762,-79.3665,2015-04-16 17:48:27 UTC,2015-04-16 17:48:27 UTC
513,Torremolino I,9.06961,-79.392947,2015-04-16 17:50:59 UTC,2015-04-16 17:50:59 UTC
504,Morelo I,9.08646,-79.384782,2015-04-16 16:51:55 UTC,2015-04-16 17:52:40 UTC
514,San Antonio I,9.088494,-79.382658,2015-04-16 17:53:12 UTC,2015-04-16 17:53:20 UTC
505,Calle Van Der Hans I,9.08984,-79.381076,2015-04-16 16:55:10 UTC,2015-04-16 17:53:39 UTC
506,Escuela Ricardo J. Alfaro I,9.091694,-79.379252,2015-04-16 16:55:54 UTC,2015-04-16 17:53:53 UTC
507,Calle Gelabert I,9.093781,-79.377213,2015-04-16 16:56:36 UTC,2015-04-16 17:54:14 UTC
508,Corregiduría Tocumen I,9.09681,-79.375582,2015-04-16 16:57:12 UTC,2015-04-16 17:54:29 UTC
509,Cruce de Tocumen I,9.097785,-79.370754,2015-04-16 16:58:26 UTC,2015-04-16 17:54:46 UTC
193,La Garceta R,9.094686,-79.368059,2015-04-07 02:27:19 UTC,2015-04-16 17:54:54 UTC
510,La Garceta I,9.094935,-79.367884,2015-04-16 16:59:05 UTC,2015-04-16 17:55:01 UTC
501,La Morada I,9.077471,-79.386821,2015-04-16 16:50:02 UTC,2015-04-16 17:56:38 UTC
515,Boulevard,8.964643,-79.534943,2015-04-16 18:59:03 UTC,2015-04-16 18:59:31 UTC
214,Avenida Samuel Lewis,8.989637,-79.51613,2015-04-07 02:27:19 UTC,2015-04-16 19:26:18 UTC
516,Circunvalación Vía Brasil I,8.983486,-79.512354,2015-04-16 19:28:15 UTC,2015-04-16 19:28:15 UTC
525,Hospital 24 de Diciembre I,9.094596,-79.394052,2015-04-16 19:58:24 UTC,2015-04-16 20:24:01 UTC
535,24 de Diciembre I,9.103177,-79.36642,2015-04-16 20:04:25 UTC,2015-04-16 20:29:31 UTC
557,Pacora I,9.087032,-79.286335,2015-04-16 20:14:29 UTC,2015-04-16 20:14:29 UTC
558,Pacora R,9.086841,-79.287493,2015-04-16 20:14:41 UTC,2015-04-16 20:14:41 UTC
520,Industrial R,9.084172,-79.397678,2015-04-16 19:53:47 UTC,2015-04-16 20:22:44 UTC
521,Industrial I,9.084108,-79.398429,2015-04-16 19:54:00 UTC,2015-04-16 20:22:51 UTC
519,Mañanitas I,9.079415,-79.400285,2015-04-16 19:52:28 UTC,2015-04-16 20:23:05 UTC
522,La Loma R,9.08932,-79.39549,2015-04-16 19:54:24 UTC,2015-04-16 20:23:42 UTC
518,Las Américas I,9.072433,-79.403472,2015-04-16 19:51:48 UTC,2015-04-16 20:38:25 UTC
523,La Loma I,9.089977,-79.396069,2015-04-16 19:54:36 UTC,2015-04-16 20:23:48 UTC
524,Hospital 24 de Diciembre R,9.094384,-79.393129,2015-04-16 19:58:02 UTC,2015-04-16 20:23:55 UTC
526,Punta del Este R,9.099342,-79.388452,2015-04-16 19:58:47 UTC,2015-04-16 20:24:07 UTC
527,Punta del Este I,9.10002,-79.389181,2015-04-16 19:59:03 UTC,2015-04-16 20:24:13 UTC
528,La Fonda R,9.101525,-79.38416,2015-04-16 19:59:38 UTC,2015-04-16 20:24:19 UTC
529,La Fonda I,9.102732,-79.384353,2015-04-16 19:59:52 UTC,2015-04-16 20:24:28 UTC
539,Nuevo Tocumen R,9.101122,-79.348626,2015-04-16 20:06:19 UTC,2015-04-16 20:30:46 UTC
530,El Encanto R,9.103241,-79.378774,2015-04-16 20:00:12 UTC,2015-04-16 20:30:07 UTC
533,La Doña I,9.103432,-79.370078,2015-04-16 20:01:16 UTC,2015-04-16 20:24:45 UTC
531,El Encanto I,9.103469,-79.379348,2015-04-16 20:00:27 UTC,2015-04-16 20:30:00 UTC
536,La Casa del Zink I,9.102891,-79.363614,2015-04-16 20:04:54 UTC,2015-04-16 20:27:24 UTC
538,Las Paredes I,9.102589,-79.359693,2015-04-16 20:05:58 UTC,2015-04-16 20:29:20 UTC
540,Nuevo Tocumen I,9.102224,-79.34957,2015-04-16 20:06:35 UTC,2015-04-16 20:30:53 UTC
541,El Molino I,9.100762,-79.331015,2015-04-16 20:07:59 UTC,2015-04-16 20:31:31 UTC
544,Felipillo I,9.100614,-79.32837,2015-04-16 20:09:01 UTC,2015-04-16 20:31:43 UTC
542,El Molino R,9.100259,-79.331262,2015-04-16 20:08:24 UTC,2015-04-16 20:31:21 UTC
546,Nueva Esperanza I,9.10002,-79.32189,2015-04-16 20:10:08 UTC,2015-04-16 20:32:22 UTC
543,Felipillo R,9.100004,-79.32697,2015-04-16 20:08:48 UTC,2015-04-16 20:31:59 UTC
554,Cruce de Pacora I,9.098241,-79.287257,2015-04-16 20:13:17 UTC,2015-04-16 20:33:55 UTC
547,San Juan R,9.09841,-79.303286,2015-04-16 20:10:25 UTC,2015-04-16 20:32:43 UTC
548,San Juan I,9.098728,-79.303651,2015-04-16 20:10:38 UTC,2015-04-16 20:32:59 UTC
549,Tatare R,9.09788,-79.29672,2015-04-16 20:11:11 UTC,2015-04-16 20:33:16 UTC
550,Tatare I,9.098283,-79.296972,2015-04-16 20:11:29 UTC,2015-04-16 20:33:28 UTC
553,Cruce de Pacora R,9.09788,-79.287279,2015-04-16 20:12:50 UTC,2015-04-16 20:33:49 UTC
555,Colinas de Pacora R,9.088748,-79.288416,2015-04-16 20:13:43 UTC,2015-04-16 20:34:47 UTC
551,Altos de Tatare R,9.097547,-79.291055,2015-04-16 20:11:47 UTC,2015-04-16 20:34:27 UTC
552,Altos de Tatare I,9.097896,-79.291221,2015-04-16 20:12:10 UTC,2015-04-16 20:34:25 UTC
556,Colinas de Pacora I,9.088812,-79.287472,2015-04-16 20:13:58 UTC,2015-04-16 20:34:54 UTC
559,Parque Pacora R,9.084468,-79.287343,2015-04-16 20:14:58 UTC,2015-04-16 20:35:11 UTC
560,Parque Pacora I,9.084638,-79.286592,2015-04-16 20:15:12 UTC,2015-04-16 20:35:16 UTC
517,Las Américas R,9.072242,-79.402463,2015-04-16 19:51:36 UTC,2015-04-16 20:38:16 UTC
545,Nueva Esperanza R,9.099687,-79.322287,2015-04-16 20:09:54 UTC,2015-04-16 20:32:17 UTC
561,Calle Gabilán,8.950935,-79.55285,2015-04-17 15:41:08 UTC,2015-04-17 15:41:08 UTC
562,El Límite I,8.951602,-79.548032,2015-04-17 15:42:10 UTC,2015-04-17 15:42:10 UTC
563,Avenida de los Mártires,8.957468,-79.543843,2015-04-17 15:43:06 UTC,2015-04-17 15:43:06 UTC
570,Furniture City R,8.995884,-79.519429,2015-04-24 19:56:10 UTC,2015-04-24 19:56:10 UTC
571,Villa Las Fuentes R,9.014847,-79.534718,2015-04-24 21:01:52 UTC,2015-04-24 21:01:52 UTC
572,Universidad Tecnológica R,9.019498,-79.531671,2015-04-24 21:02:25 UTC,2015-04-24 21:02:25 UTC
573,Santa María R,9.020706,-79.529021,2015-04-24 21:02:48 UTC,2015-04-24 21:02:48 UTC
574,Club de las Montañas R,9.031027,-79.515781,2015-04-24 21:04:47 UTC,2015-04-24 21:04:47 UTC
575,Artec R,9.031366,-79.511597,2015-04-24 21:08:38 UTC,2015-04-24 21:08:38 UTC
576,Escuela Manuel E. Amador R,9.008086,-79.5187,2015-04-24 21:13:42 UTC,2015-04-24 21:13:42 UTC
577,Cemento Panama I,9.019287,-79.517198,2015-04-24 21:15:38 UTC,2015-04-24 21:15:38 UTC
578,Cemento Panamá R,9.020018,-79.516329,2015-04-24 21:16:00 UTC,2015-04-24 21:16:00 UTC
579,Calle 81 Oeste R,9.024235,-79.51046,2015-04-24 21:16:36 UTC,2015-04-24 21:16:36 UTC
580,Calle 81 Oeste I,9.024945,-79.510342,2015-04-24 21:16:49 UTC,2015-04-24 21:16:49 UTC
581,villa de la fuente,8.94536,-79.554255,2015-04-25 17:29:16 UTC,2015-04-25 17:29:16 UTC
39,Plaza Córdoba R,9.001658,-79.520017,2015-04-07 02:27:18 UTC,2015-04-26 21:16:53 UTC
582,IFARHU,8.979782,-79.529225,2015-04-26 21:20:45 UTC,2015-04-26 21:20:45 UTC
583,Medisalud,8.977991,-79.532744,2015-04-26 21:23:51 UTC,2015-04-26 21:23:51 UTC
537,Las Paredes R,9.102314,-79.359655,2015-04-16 20:05:47 UTC,2015-04-27 18:39:39 UTC
584,Calle M,8.963006,-79.540662,2015-04-26 21:27:44 UTC,2015-04-26 21:27:44 UTC
569,Calle 27 Este,8.9645,-79.537432,2015-04-24 19:02:52 UTC,2015-04-26 21:28:45 UTC
585,Multiláminas I,8.996928,-79.527213,2015-04-26 22:39:40 UTC,2015-04-26 22:39:40 UTC
72,Bethania R,9.002413,-79.523006,2015-04-07 02:27:18 UTC,2015-04-26 22:40:57 UTC
165,Severino Hernández R,9.029125,-79.496727,2015-04-07 02:27:18 UTC,2015-04-26 22:47:31 UTC
586,Rooselvet R,9.030513,-79.491309,2015-04-26 22:48:37 UTC,2015-04-26 22:48:37 UTC
588,Súper 99 San Miguelito,9.030349,-79.50531,2015-04-26 22:53:46 UTC,2015-04-26 22:53:46 UTC
163,Las Colinas R,9.030577,-79.502403,2015-04-07 02:27:18 UTC,2015-04-26 22:55:39 UTC
589,Las Colinas I,9.030873,-79.502102,2015-04-26 22:55:58 UTC,2015-04-26 22:55:58 UTC
590,Vila Lucre I,9.037596,-79.48102,2015-04-26 22:58:16 UTC,2015-04-26 22:58:16 UTC
591,Villa Lucre R,9.03731,-79.480548,2015-04-26 22:58:40 UTC,2015-04-26 22:58:40 UTC
592,Plaza Conquistador I,9.041718,-79.475055,2015-04-26 22:59:52 UTC,2015-04-26 22:59:52 UTC
587,El Crisol R,9.043286,-79.47204,2015-04-26 22:51:22 UTC,2015-04-26 23:00:28 UTC
593,Nueva California R,9.054835,-79.437944,2015-04-26 23:10:03 UTC,2015-04-26 23:10:03 UTC
594,Nueva California I,9.055238,-79.438233,2015-04-26 23:10:52 UTC,2015-04-26 23:10:52 UTC
600,Cardoze & Lindo,9.035689,-79.48293,2015-04-26 23:20:58 UTC,2015-04-26 23:20:58 UTC
298,Calle 140 Oeste,9.062522,-79.43002,2015-04-07 02:27:19 UTC,2015-04-26 23:30:30 UTC
603,Calle 149 Este A,9.063322,-79.420381,2015-04-26 23:43:30 UTC,2015-04-26 23:43:30 UTC
605,Calle 149 Este,9.062177,-79.42081,2015-04-26 23:50:40 UTC,2015-04-26 23:50:40 UTC
604,Calle 139 Este R,9.060821,-79.426517,2015-04-26 23:45:54 UTC,2015-04-26 23:51:46 UTC
70,Calle 64 Oeste I,8.999985,-79.525191,2015-04-07 02:27:18 UTC,2015-04-28 13:02:40 UTC
607,San Pedro Norte R,9.047217,-79.463232,2015-04-26 23:53:34 UTC,2015-04-26 23:54:26 UTC
608,Cerro Viento R,9.049633,-79.454606,2015-04-26 23:54:51 UTC,2015-04-26 23:54:51 UTC
601,San Cristobal Norte R,9.04478,-79.468403,2015-04-26 23:24:08 UTC,2015-04-26 23:59:32 UTC
602,San Cristobal Norte I,9.045368,-79.468698,2015-04-26 23:25:14 UTC,2015-04-26 23:59:44 UTC
609,Brisas del Golf R,9.048287,-79.460474,2015-04-26 23:56:20 UTC,2015-04-27 00:00:29 UTC
284,Villa de Don Bosco I,9.04158,-79.407586,2015-04-07 02:27:19 UTC,2015-04-27 00:14:39 UTC
606,Don Bosco I,9.061478,-79.423074,2015-04-26 23:51:06 UTC,2015-04-27 00:18:44 UTC
599,Harinas del Itsmo I,9.065912,-79.414281,2015-04-26 23:16:50 UTC,2015-04-27 13:40:37 UTC
611,Barriada de San Antonio I,9.052123,-79.445175,2015-04-27 13:41:51 UTC,2015-04-27 13:41:51 UTC
612,Los Pueblos I,9.050904,-79.450089,2015-04-27 13:42:23 UTC,2015-04-27 13:42:23 UTC
613,Cerro Viento I,9.050438,-79.455024,2015-04-27 13:42:46 UTC,2015-04-27 13:42:46 UTC
614,Brisas de Golf I,9.048986,-79.460635,2015-04-27 13:43:17 UTC,2015-04-27 13:43:17 UTC
615,San Pedro Norte I,9.047874,-79.463832,2015-04-27 13:43:42 UTC,2015-04-27 13:43:42 UTC
55,Antiguo Depósito R,8.996885,-79.533269,2015-04-07 02:27:18 UTC,2015-04-27 14:17:21 UTC
160,La Universidad Santa María la Antigua USMA R,9.029191,-79.519064,2015-04-07 02:27:18 UTC,2015-04-27 14:20:36 UTC
616,Desc. Después USMA R,9.031069,-79.509666,2015-04-27 14:30:37 UTC,2015-04-27 14:30:37 UTC
220,Universidad Latinoamericana de Ciencia y Tecnología ULACIT R,9.005077,-79.510798,2015-04-07 02:27:19 UTC,2015-04-27 16:45:50 UTC
618,Antigua Pepsi R,9.004261,-79.512123,2015-04-27 16:46:13 UTC,2015-04-27 16:46:13 UTC
619,Depósitos de Panamá R,9.006952,-79.5087,2015-04-27 16:47:05 UTC,2015-04-27 16:47:05 UTC
620,Súper 99 Rio Abajo R,9.012653,-79.501437,2015-04-27 16:48:48 UTC,2015-04-27 16:48:48 UTC
621,Santa Elena R,9.016977,-79.494978,2015-04-27 16:49:17 UTC,2015-04-27 16:49:17 UTC
622,Policlínica Juan Díaz R,9.037183,-79.467051,2015-04-27 16:53:37 UTC,2015-04-27 16:53:48 UTC
623,Santa Inés I,9.045257,-79.449091,2015-04-27 16:57:10 UTC,2015-04-27 16:57:10 UTC
624,Star Contact R,9.039037,-79.462491,2015-04-27 16:59:51 UTC,2015-04-27 16:59:51 UTC
241,San Cristobal Sur I,9.038571,-79.464895,2015-04-07 02:27:19 UTC,2015-04-27 17:00:54 UTC
625,J. J. Vallarino R,9.054464,-79.434156,2015-04-27 17:05:18 UTC,2015-04-27 17:05:18 UTC
632,Banco General R,9.021596,-79.486213,2015-04-27 17:43:16 UTC,2015-04-27 17:43:16 UTC
633,Escuela José Dolores Moscote,9.01971,-79.486706,2015-04-27 17:43:33 UTC,2015-04-27 17:43:33 UTC
634,Centro de Visitantes,9.003752,-79.493616,2015-04-27 17:44:19 UTC,2015-04-27 17:44:19 UTC
635,Centro de Visitantes,9.003752,-79.493616,2015-04-27 17:44:21 UTC,2015-04-27 17:44:21 UTC
636,Centro de Visitantes,9.003752,-79.493616,2015-04-27 17:44:22 UTC,2015-04-27 17:44:22 UTC
637,Coco Bay,9.002481,-79.495729,2015-04-27 17:44:47 UTC,2015-04-27 17:48:47 UTC
638,Calle 89 C Este,9.005029,-79.495182,2015-04-27 17:46:57 UTC,2015-04-27 17:50:05 UTC
639,San Gerando de Mayela R,9.016637,-79.483852,2015-04-27 17:54:09 UTC,2015-04-27 17:54:09 UTC
640,San Gerardo de Mayela I,9.016913,-79.484947,2015-04-27 17:54:25 UTC,2015-04-27 17:54:25 UTC
641,Entrada Costa del Este R,9.015006,-79.484882,2015-04-27 17:54:44 UTC,2015-04-27 17:54:44 UTC
642,Entrada Costa del Este I,9.015112,-79.485612,2015-04-27 17:54:56 UTC,2015-04-27 17:54:56 UTC
643,Escuela Sara Sotillo,9.012547,-79.486063,2015-04-27 17:55:19 UTC,2015-04-27 17:55:19 UTC
644,Villa del Rey I,9.011286,-79.486395,2015-04-27 17:55:45 UTC,2015-04-27 17:55:45 UTC
645,Villa Rey R,9.010735,-79.485805,2015-04-27 17:56:01 UTC,2015-04-27 17:56:01 UTC
646,Avenida 71/2 A Sur R,9.008372,-79.487286,2015-04-27 17:56:32 UTC,2015-04-27 17:56:32 UTC
647,Avenida 71/2 A Sur I,9.009072,-79.487565,2015-04-27 17:56:54 UTC,2015-04-27 17:56:54 UTC
610,Calle 4 R,9.054766,-79.41721,2015-04-27 00:16:47 UTC,2015-05-03 16:42:04 UTC
598,Harinas del Itsmo R,9.065329,-79.414678,2015-04-26 23:16:01 UTC,2015-05-03 16:44:25 UTC
597,Carvajal,9.066431,-79.412511,2015-04-26 23:15:39 UTC,2015-05-03 16:44:41 UTC
595,Universidad Tecnológica de Panamá UTP R,9.068449,-79.407061,2015-04-26 23:13:42 UTC,2015-05-03 16:45:04 UTC
596,Universidad Tecnológica de Panamá UTP I,9.068836,-79.407002,2015-04-26 23:14:11 UTC,2015-05-03 16:45:11 UTC
626,Juan Díaz R,9.048271,-79.43973,2015-04-27 17:27:20 UTC,2015-05-03 16:46:22 UTC
627,El Pinate R,9.046306,-79.445175,2015-04-27 17:27:40 UTC,2015-05-03 16:46:44 UTC
628,Santa Inés R,9.045606,-79.449697,2015-04-27 17:27:59 UTC,2015-05-03 16:46:56 UTC
629,Villa Venus R,9.044981,-79.452825,2015-04-27 17:28:42 UTC,2015-05-03 16:47:06 UTC
630,San Fernando R,9.041993,-79.457626,2015-04-27 17:29:13 UTC,2015-05-03 16:47:26 UTC
631,Star Contact I,9.039774,-79.461901,2015-04-27 17:29:46 UTC,2015-05-03 16:47:40 UTC
648,Calle 95 C Este I,9.008288,-79.491481,2015-04-27 17:57:20 UTC,2015-04-27 17:57:20 UTC
649,Calle 95 C Este R,9.007959,-79.491405,2015-04-27 17:57:44 UTC,2015-04-27 17:57:44 UTC
650,Gimnasio Panamá Viejo R,9.006253,-79.493337,2015-04-27 17:58:04 UTC,2015-04-27 17:58:04 UTC
651,Gimnasio Panamá Viejo I,9.006634,-79.493616,2015-04-27 17:58:22 UTC,2015-04-27 17:58:22 UTC
652,Calle 79 Este,8.998978,-79.497414,2015-04-27 17:58:49 UTC,2015-04-27 17:59:39 UTC
653,El Domo R,8.981053,-79.545457,2015-04-27 18:04:03 UTC,2015-04-27 18:04:03 UTC
654,MOP I,8.97372,-79.54726,2015-04-27 18:04:18 UTC,2015-04-27 18:04:18 UTC
655,SERTV I,8.970414,-79.548032,2015-04-27 18:04:37 UTC,2015-04-27 18:04:37 UTC
656,Entrada Curundú,8.971707,-79.546509,2015-04-27 18:04:53 UTC,2015-04-27 18:04:53 UTC
657,Grupo Sílaba,8.987878,-79.512584,2015-04-27 18:07:15 UTC,2015-04-27 18:07:15 UTC
658,Ancla,8.990103,-79.51134,2015-04-27 18:07:34 UTC,2015-04-27 18:07:34 UTC
659,Tapas y Vinos,8.992075,-79.508604,2015-04-27 18:07:50 UTC,2015-04-27 18:07:50 UTC
660,Rey Calle 50,8.993081,-79.50354,2015-04-27 18:08:13 UTC,2015-04-27 18:08:13 UTC
665,Calle 78 B Este,8.996091,-79.49927,2015-04-27 18:10:25 UTC,2015-04-27 18:10:25 UTC
667,Calle 78 B Este R,8.995916,-79.498744,2015-04-27 18:14:47 UTC,2015-04-27 18:14:47 UTC
668,El Balboa I,9.024224,-79.486921,2015-04-27 18:16:14 UTC,2015-04-27 18:16:14 UTC
670,Junta Comunal 24 de Diciembre,9.098664,-79.361029,2015-04-27 18:27:46 UTC,2015-04-27 18:27:46 UTC
671,Barriada 24 de Diciembre,9.094374,-79.361565,2015-04-27 18:28:23 UTC,2015-04-27 18:28:23 UTC
672,Colinas 24 de Diciembre,9.092393,-79.361361,2015-04-27 18:28:46 UTC,2015-04-27 18:28:46 UTC
673,Parque 24 de Diciembre,9.090327,-79.360632,2015-04-27 18:29:07 UTC,2015-04-27 18:29:07 UTC
674,Altos 24 de Diciembre,9.092403,-79.359891,2015-04-27 18:29:30 UTC,2015-04-27 18:29:30 UTC
675,24 de Diciembre Interna,9.094935,-79.359977,2015-04-27 18:30:03 UTC,2015-04-27 18:30:03 UTC
676,Escuela 24 de Diciembre,9.09805,-79.35958,2015-04-27 18:30:22 UTC,2015-04-27 18:30:22 UTC
677,Entrada 24 de Diciembre,9.100783,-79.359097,2015-04-27 18:30:40 UTC,2015-04-27 18:30:40 UTC
679,Estadio Rommel Fernandez I,9.036643,-79.471257,2015-04-27 19:48:48 UTC,2015-04-27 19:48:48 UTC
680,Plaza Carolina I,9.029798,-79.477673,2015-04-27 19:50:56 UTC,2015-04-27 19:50:56 UTC
681,Súper 99 Río Abajo I,9.013459,-79.501126,2015-04-27 19:51:55 UTC,2015-04-27 19:51:55 UTC
682,Depósitos de Panamá I,9.00797,-79.508057,2015-04-27 19:52:54 UTC,2015-04-27 19:52:54 UTC
683,12 de Octubre,9.009771,-79.506211,2015-04-27 19:53:12 UTC,2015-04-27 19:53:12 UTC
684,Universidad Latinoamericana de Ciencia y Tecnología ULACIT I,9.006698,-79.509773,2015-04-27 19:54:54 UTC,2015-04-27 19:54:54 UTC
685,Antigua Pepsi I,9.004494,-79.513271,2015-04-27 19:55:10 UTC,2015-04-27 19:55:10 UTC
686,Chivo I,9.072412,-79.523882,2015-04-27 20:14:26 UTC,2015-04-27 20:14:26 UTC
687,ULAPS I,9.079637,-79.527283,2015-04-27 20:15:52 UTC,2015-04-27 20:15:52 UTC
688,El Palmar I,9.085697,-79.529278,2015-04-27 20:16:06 UTC,2015-04-27 20:16:06 UTC
689,Las Lajas I,9.087943,-79.532089,2015-04-27 20:16:21 UTC,2015-04-27 20:16:21 UTC
690,Gonzalillo I,9.09413,-79.532754,2015-04-27 20:16:43 UTC,2015-04-27 20:16:43 UTC
691,Escuela Francisco Beckman,9.098537,-79.53269,2015-04-27 20:17:25 UTC,2015-04-27 20:17:25 UTC
692,Villa Flora I,9.103453,-79.535265,2015-04-27 20:17:46 UTC,2015-04-27 20:17:46 UTC
693,La Cabima I,9.107457,-79.537132,2015-04-27 20:18:08 UTC,2015-04-27 20:18:08 UTC
694,Linda Vista Alcalde Díaz,9.125445,-79.553075,2015-04-27 20:25:02 UTC,2015-04-27 20:25:02 UTC
695,Calle 4 Ciudad Bolívar I,9.121361,-79.54483,2015-04-27 20:28:03 UTC,2015-04-27 20:28:03 UTC
115,Banco Nacional de Panamá Milla 8 I,9.06632,-79.517369,2015-04-07 02:27:18 UTC,2015-04-27 20:31:48 UTC
696,Banco Nacional de Panamá Milla 8 R,9.066611,-79.51708,2015-04-27 20:32:14 UTC,2015-04-27 20:32:14 UTC
697,Entrada Tinajitas,9.062802,-79.510052,2015-04-27 20:53:23 UTC,2015-04-27 20:53:23 UTC
701,Domo I,8.98152,-79.546788,2015-04-27 21:39:46 UTC,2015-04-27 21:39:46 UTC
702,Tecnasa R,8.97673,-79.539685,2015-04-27 21:40:46 UTC,2015-04-27 21:40:46 UTC
703,Tecnasa I,8.978107,-79.540071,2015-04-27 21:41:02 UTC,2015-04-27 21:41:02 UTC
698,Villa Las Cumbres I,9.109147,-79.547995,2015-04-27 20:55:11 UTC,2015-04-27 21:55:12 UTC
699,San Roque I,9.109941,-79.550967,2015-04-27 20:57:34 UTC,2015-04-27 21:55:23 UTC
704,Alcalde Díaz I,9.110148,-79.555811,2015-04-27 21:56:58 UTC,2015-04-27 22:56:50 UTC
705,Fábrica de Baldosas I,9.113262,-79.562833,2015-04-27 21:57:35 UTC,2015-04-27 22:59:27 UTC
706,Panatro I,9.118411,-79.570606,2015-04-27 23:04:12 UTC,2015-04-27 23:04:12 UTC
707,Buenos Aires I,9.176457,-79.61616,2015-04-27 23:07:49 UTC,2015-04-27 23:07:49 UTC
708,Cancha Chilibre R,9.187048,-79.613671,2015-04-27 23:24:21 UTC,2015-04-27 23:24:25 UTC
709,Chilibre Centro Interno R,9.152541,-79.617941,2015-04-27 23:26:19 UTC,2015-04-27 23:26:19 UTC
710,El Sucre R,9.15718,-79.616718,2015-04-27 23:27:03 UTC,2015-04-27 23:27:03 UTC
711,Cancha Chilibre I,9.18564,-79.613714,2015-04-27 23:38:48 UTC,2015-04-27 23:38:48 UTC
712,Iglesia Chilibre I,9.18565,-79.610453,2015-04-27 23:39:29 UTC,2015-04-27 23:39:29 UTC
713,Iglesia Chilibre R,9.184464,-79.611783,2015-04-27 23:39:42 UTC,2015-04-27 23:39:42 UTC
714,Las Vegas Interno R,9.16523,-79.615173,2015-04-27 23:42:55 UTC,2015-04-27 23:42:55 UTC
715,Torres de Chilibre R,9.174551,-79.609509,2015-04-27 23:43:16 UTC,2015-04-27 23:43:16 UTC
716,Grupo ORBE R,9.142944,-79.61556,2015-04-27 23:45:09 UTC,2015-04-27 23:45:09 UTC
717,Maria Eugenia R,9.15218,-79.617834,2015-04-27 23:46:10 UTC,2015-04-27 23:46:10 UTC
345,Los Pinos I,9.065557,-79.501587,2015-04-07 02:27:19 UTC,2015-04-28 12:22:53 UTC
718,Los Pinos R,9.065403,-79.501812,2015-04-28 12:23:10 UTC,2015-04-28 12:23:10 UTC
719,La Vilca I,9.063115,-79.497449,2015-04-28 12:23:31 UTC,2015-04-28 12:23:31 UTC
725,Corregiduría de Mano de Piedra I,9.059322,-79.491996,2015-04-28 12:28:51 UTC,2015-04-28 12:28:51 UTC
726,Cerro Batea R,9.063465,-79.495504,2015-04-28 12:31:00 UTC,2015-04-28 12:31:00 UTC
727,Tortimasa R,9.065552,-79.49353,2015-04-28 12:32:05 UTC,2015-04-28 12:32:05 UTC
728,Escuela Torrijos Carter R,9.068767,-79.492328,2015-04-28 12:32:44 UTC,2015-04-28 12:32:44 UTC
720,Entrada Mano de Piedra R,9.062744,-79.492854,2015-04-28 12:24:06 UTC,2015-04-28 12:41:10 UTC
724,T de Urracá R,9.071342,-79.489303,2015-04-28 12:27:39 UTC,2015-04-28 12:33:35 UTC
723,Valle de Urracá I,9.067999,-79.48772,2015-04-28 12:25:18 UTC,2015-04-28 12:33:58 UTC
722,La Paz I,9.064752,-79.488342,2015-04-28 12:24:51 UTC,2015-04-28 12:34:11 UTC
721,Policía Mano de Piedra R,9.063565,-79.490413,2015-04-28 12:24:29 UTC,2015-04-28 12:34:44 UTC
729,La Fula R,9.067401,-79.502108,2015-04-28 12:49:42 UTC,2015-04-28 12:49:42 UTC
338,Entrada de Mano de Piedra I,9.062183,-79.492468,2015-04-07 02:27:19 UTC,2015-04-28 12:41:04 UTC
730,Entrada el Pueblito I,9.069112,-79.503137,2015-04-28 12:50:22 UTC,2015-04-28 12:50:22 UTC
731,El Valle San Isidro R,9.06801,-79.506581,2015-04-28 12:52:48 UTC,2015-04-28 12:52:48 UTC
732,El Pueblito I,9.06979,-79.506066,2015-04-28 12:53:25 UTC,2015-04-28 12:53:25 UTC
733,Policlínica Generoso Guardia I,9.071935,-79.505283,2015-04-28 12:54:24 UTC,2015-04-28 12:54:24 UTC
700,Entrada Ciudad Bolívar,9.109512,-79.542947,2015-04-27 21:04:21 UTC,2015-04-28 13:43:54 UTC
734,Nazareno R,9.063851,-79.431152,2015-04-28 14:37:02 UTC,2015-04-28 14:37:02 UTC
735,Rana de Oro R,9.071093,-79.426185,2015-04-28 14:39:49 UTC,2015-04-28 14:39:57 UTC
661,Grill 50,8.993595,-79.516511,2015-04-27 18:08:49 UTC,2015-04-28 22:50:58 UTC
662,Marianela,8.995619,-79.51399,2015-04-27 18:09:05 UTC,2015-04-28 22:51:07 UTC
669,Graphic Shop,8.996562,-79.503416,2015-04-27 18:17:46 UTC,2015-04-28 22:51:32 UTC
666,Motores Japoneses,8.993876,-79.499393,2015-04-27 18:10:57 UTC,2015-04-28 22:51:43 UTC
678,Don Bosco R,9.062177,-79.422441,2015-04-27 18:46:13 UTC,2015-05-03 16:44:10 UTC
737,San Joaquín I,9.070028,-79.42347,2015-04-28 14:42:22 UTC,2015-04-28 14:42:22 UTC
736,Villa Lobos I,9.069864,-79.42913,2015-04-28 14:40:23 UTC,2015-04-28 14:43:47 UTC
738,Escuela Melchor Lasso R,9.116504,-79.544395,2015-04-28 16:47:12 UTC,2015-04-28 16:47:12 UTC
739,Santa Teresa I,9.126864,-79.545704,2015-04-28 16:49:23 UTC,2015-04-28 16:49:23 UTC
740,Avenida Francisco Paredes I,9.134618,-79.550575,2015-04-28 16:51:17 UTC,2015-04-28 16:51:17 UTC
451,Avenida Francisco Paredes R,9.134899,-79.550296,2015-04-07 02:27:19 UTC,2015-04-28 16:51:26 UTC
741,Villa Bolivariana I,9.136053,-79.552919,2015-04-28 16:52:21 UTC,2015-04-28 16:52:21 UTC
742,Calle 7 Ciudad Bolívar I,9.123766,-79.544755,2015-04-28 16:57:36 UTC,2015-04-28 16:59:58 UTC
743,Villa Gabriela R,9.027965,-79.488434,2015-04-28 18:06:28 UTC,2015-04-28 18:06:28 UTC
745,Villa Guadalupe R,9.032298,-79.491797,2015-04-28 18:07:23 UTC,2015-04-28 18:07:23 UTC
747,Parque Automotor R,9.038529,-79.489882,2015-04-28 18:08:00 UTC,2015-04-28 18:11:52 UTC
746,Automotor R,9.034773,-79.488487,2015-04-28 18:07:41 UTC,2015-04-28 18:12:03 UTC
744,Entrada Rooselvet R,9.03144,-79.491427,2015-04-28 18:06:57 UTC,2015-04-28 18:12:23 UTC
748,Escuela Estado de Israel R,9.038529,-79.492264,2015-04-28 18:08:16 UTC,2015-04-28 18:12:50 UTC
749,FarmaNet R,9.038719,-79.493036,2015-04-28 18:13:13 UTC,2015-04-28 18:13:13 UTC
750,Biblioteca Omar Torrijos R,9.041548,-79.492682,2015-04-28 18:13:34 UTC,2015-04-28 18:13:34 UTC
753,La Pesa R,9.047598,-79.500579,2015-04-28 18:15:22 UTC,2015-04-28 18:15:22 UTC
754,Escuela Carlos A. Mendoza R,9.046136,-79.499044,2015-04-28 18:16:35 UTC,2015-04-28 18:16:35 UTC
755,SUNTRACS R,9.043991,-79.498379,2015-04-28 18:16:52 UTC,2015-04-28 18:16:52 UTC
751,Salida Calle O R,9.043074,-79.492334,2015-04-28 18:13:58 UTC,2015-04-28 18:18:06 UTC
756,Entrada Calle O R,9.042121,-79.495976,2015-04-28 18:18:38 UTC,2015-04-28 18:18:38 UTC
757,Calle O R,9.043013,-79.494833,2015-04-28 18:18:53 UTC,2015-04-28 18:18:53 UTC
759,Corregiduría de Veranillo R,9.035435,-79.49883,2015-04-28 18:34:54 UTC,2015-04-28 18:34:54 UTC
758,Ministerio de Salud MINSA Veranillo R,9.032807,-79.499989,2015-04-28 18:34:32 UTC,2015-04-28 18:36:40 UTC
760,Calle Z I,9.047281,-79.50045,2015-04-28 18:42:12 UTC,2015-04-28 18:42:12 UTC
761,Escuela Carlos A. Mendoza I,9.045124,-79.499248,2015-04-28 18:42:43 UTC,2015-04-28 18:42:43 UTC
762,SUNTRACS I,9.04372,-79.498637,2015-04-28 18:43:01 UTC,2015-04-28 18:43:01 UTC
763,Entrada Calle O I,9.041729,-79.496834,2015-04-28 18:43:59 UTC,2015-04-28 18:43:59 UTC
764,Calle O I,9.04283,-79.494399,2015-04-28 18:44:10 UTC,2015-04-28 18:44:10 UTC
765,Salida Calle O I,9.042385,-79.492886,2015-04-28 18:44:30 UTC,2015-04-28 18:44:30 UTC
766,Biblioteca Omar Torrijos I,9.041284,-79.492961,2015-04-28 18:44:48 UTC,2015-04-28 18:44:48 UTC
767,Policlínica María Valdés I,9.038052,-79.49501,2015-04-28 18:45:15 UTC,2015-04-28 18:45:15 UTC
768,Veranillo Circunvalación I,9.037596,-79.49706,2015-04-28 18:45:36 UTC,2015-04-28 18:45:36 UTC
769,Corregiduría de Veranillo I,9.036123,-79.498765,2015-04-28 18:45:57 UTC,2015-04-28 18:45:57 UTC
770,Banco Nacional de Veranillo I,9.034386,-79.499924,2015-04-28 18:46:20 UTC,2015-04-28 18:46:20 UTC
795,Ceciliio Castillero I,9.043371,-79.416019,2015-05-03 21:14:41 UTC,2015-05-03 21:46:47 UTC
752,Calle Z R,9.048859,-79.502048,2015-04-28 18:14:52 UTC,2015-04-28 18:49:00 UTC
771,Calle Z I,9.048626,-79.502295,2015-04-28 18:48:45 UTC,2015-04-28 18:49:42 UTC
772,Escuela Santiago de la Guardia R,9.073832,-79.511173,2015-04-28 20:36:51 UTC,2015-04-28 20:36:51 UTC
773,Entrada del Valle de San Isidro I,9.070976,-79.506726,2015-04-28 20:59:59 UTC,2015-04-28 20:59:59 UTC
774,Colegio Richard,8.981541,-79.514623,2015-04-28 21:59:23 UTC,2015-04-28 21:59:23 UTC
798,Calle Circunvalación R,9.045779,-79.4133,2015-05-03 21:47:58 UTC,2015-05-03 21:47:58 UTC
777,Instituto Justo Arosemena R,8.987179,-79.506018,2015-04-28 22:00:38 UTC,2015-04-28 22:03:15 UTC
776,Kyocera R,8.986861,-79.509103,2015-04-28 22:00:10 UTC,2015-04-28 22:06:17 UTC
775,Multiplaza I,8.985923,-79.51215,2015-04-28 21:59:46 UTC,2015-04-28 22:06:47 UTC
778,Atlapa R,8.987687,-79.501898,2015-04-28 22:01:35 UTC,2015-04-28 22:07:02 UTC
779,Jimmy R,8.992011,-79.49839,2015-04-28 22:08:02 UTC,2015-04-28 22:09:08 UTC
780,Jimmy I,8.991163,-79.498615,2015-04-28 22:08:19 UTC,2015-04-28 22:09:17 UTC
781,Calle 39 Este,8.971627,-79.529901,2015-04-28 22:17:37 UTC,2015-04-28 22:17:37 UTC
663,Caja Seguro Social San Francisco,8.996615,-79.510712,2015-04-27 18:09:25 UTC,2015-04-28 22:51:16 UTC
664,Parque Omar,8.997283,-79.506834,2015-04-27 18:09:39 UTC,2015-04-28 22:51:24 UTC
782,Parque de Alicante,9.079129,-79.409437,2015-04-28 23:44:22 UTC,2015-04-28 23:44:22 UTC
783,Punta Pacífica,8.971558,-79.506254,2015-04-29 01:27:11 UTC,2015-04-29 02:42:48 UTC
784,Calle 1C I,9.059031,-79.419662,2015-05-03 17:01:08 UTC,2015-05-03 17:01:08 UTC
785,Calle 3B I,9.056721,-79.418128,2015-05-03 17:01:40 UTC,2015-05-03 17:01:40 UTC
786,Calle 4 I,9.054459,-79.41801,2015-05-03 17:01:59 UTC,2015-05-03 17:01:59 UTC
787,Los Sauces I,9.052552,-79.418074,2015-05-03 17:02:20 UTC,2015-05-03 17:03:07 UTC
788,Calle 5C I,9.050576,-79.41714,2015-05-03 17:05:02 UTC,2015-05-03 17:05:02 UTC
789,Calle 6 I,9.051074,-79.414061,2015-05-03 17:05:25 UTC,2015-05-03 17:05:25 UTC
790,Vereda O I,9.042852,-79.409652,2015-05-03 21:03:12 UTC,2015-05-03 21:03:12 UTC
791,Vereda O I,9.042852,-79.409652,2015-05-03 21:03:12 UTC,2015-05-03 21:03:12 UTC
792,Vereda O I,9.042852,-79.409652,2015-05-03 21:03:12 UTC,2015-05-03 21:03:12 UTC
793,Villa Don Bosco R,9.041771,-79.406916,2015-05-03 21:03:40 UTC,2015-05-03 21:03:40 UTC
794,Versalles R,9.041808,-79.419817,2015-05-03 21:13:27 UTC,2015-05-03 21:13:27 UTC
796,Teremar R,9.049569,-79.408177,2015-05-03 21:19:09 UTC,2015-05-03 21:19:09 UTC
797,Avenida Primera R,9.047386,-79.410124,2015-05-03 21:20:49 UTC,2015-05-03 21:20:49 UTC
799,Calle Escandinavos I,9.047924,-79.410593,2015-05-03 21:58:07 UTC,2015-05-03 21:58:27 UTC
801,Calle N I,9.050576,-79.41346,2015-05-03 22:04:27 UTC,2015-05-03 22:07:48 UTC
800,Calle N R,9.050078,-79.412913,2015-05-03 22:04:07 UTC,2015-05-03 22:07:55 UTC
802,La Casa del Zink R,9.102552,-79.363743,2015-05-03 23:28:57 UTC,2015-05-03 23:28:57 UTC
