id,name,lat,lon,created_at,updated_at
1,Hospital Santo Tomás,8.969822,-79.534385,2015-04-07 02:27:18 UTC,2015-04-07 02:27:18 UTC
2,Estación 5 de Mayo,8.962299,-79.539685,2015-04-07 02:27:18 UTC,2015-04-07 02:27:18 UTC
3,Estación de Marañón,8.961659,-79.538676,2015-04-07 02:27:18 UTC,2015-04-13 23:03:45 UTC
4,Calle 26 Este,8.962773,-79.535136,2015-04-07 02:27:18 UTC,2015-04-07 02:27:18 UTC
5,Hospital del Niño,8.968546,-79.532081,2015-04-07 02:27:18 UTC,2015-04-07 02:27:18 UTC
6,Calle 41 Este,8.972305,-79.528568,2015-04-07 02:27:18 UTC,2015-04-07 02:27:18 UTC
7,Parque Urracá,8.975188,-79.52731,2015-04-07 02:27:18 UTC,2015-04-07 02:27:18 UTC
8,Aquilino de la Guardia,8.974719,-79.521081,2015-04-07 02:27:18 UTC,2015-04-07 02:27:18 UTC
9,Calle 32 Este,8.966448,-79.532867,2015-04-07 02:27:18 UTC,2015-04-07 02:27:18 UTC
11,Calle 45 Este,8.97585,-79.531596,2015-04-07 02:27:18 UTC,2015-04-07 02:27:18 UTC
12,El Geriátrico,8.977883,-79.531055,2015-04-07 02:27:18 UTC,2015-04-07 02:27:18 UTC
13,Avenida 4a Sur,8.978346,-79.52938,2015-04-07 02:27:18 UTC,2015-04-07 02:27:18 UTC
14,Sol de la india,8.983113,-79.526695,2015-04-07 02:27:18 UTC,2015-04-07 02:27:18 UTC
15,Plaza Concordia,8.984402,-79.525864,2015-04-07 02:27:18 UTC,2015-04-07 02:27:18 UTC
17,Obarrio,8.992804,-79.520439,2015-04-07 02:27:18 UTC,2015-04-07 02:27:18 UTC
18,Cruce Vista Hermosa,8.994342,-79.51936,2015-04-07 02:27:18 UTC,2015-04-07 02:27:18 UTC
20,Mercadito Calidonia,8.963864,-79.539746,2015-04-07 02:27:18 UTC,2015-04-07 02:27:18 UTC
21,Calle 28 Calidonia,8.966251,-79.539086,2015-04-07 02:27:18 UTC,2015-04-07 02:27:18 UTC
22,Porras,8.970087,-79.53685,2015-04-07 02:27:18 UTC,2015-04-07 02:27:18 UTC
23,IJA del Casino,8.972293,-79.536299,2015-04-07 02:27:18 UTC,2015-04-07 02:27:18 UTC
24,Perejil,8.973019,-79.53637,2015-04-07 02:27:18 UTC,2015-04-07 02:27:18 UTC
26,Calle 26 Este,8.962773,-79.535136,2015-04-07 02:27:18 UTC,2015-04-07 02:27:18 UTC
27,Calle 32 Este,8.966448,-79.532867,2015-04-07 02:27:18 UTC,2015-04-07 02:27:18 UTC
28,Calle 41 Este,8.972305,-79.528568,2015-04-07 02:27:18 UTC,2015-04-07 02:27:18 UTC
32,Multiplaza,8.986875,-79.51267,2015-04-07 02:27:18 UTC,2015-04-07 02:27:18 UTC
33,Kyocera,8.98713,-79.509265,2015-04-07 02:27:18 UTC,2015-04-07 02:27:18 UTC
34,Instituto Justo Arosemena,8.987695,-79.505138,2015-04-07 02:27:18 UTC,2015-04-07 02:27:18 UTC
35,Atlapa,8.988167,-79.501488,2015-04-07 02:27:18 UTC,2015-04-07 02:27:18 UTC
36,BNP via porras,8.994093,-79.501198,2015-04-07 02:27:18 UTC,2015-04-07 02:27:18 UTC
37,Marbella (el pio pio),8.997702,-79.519846,2015-04-07 02:27:18 UTC,2015-04-07 02:27:18 UTC
38,Marbella (super 99),8.99826,-79.520022,2015-04-07 02:27:18 UTC,2015-04-07 02:27:18 UTC
41,El Ingenio,9.005754,-79.520143,2015-04-07 02:27:18 UTC,2015-04-07 02:27:18 UTC
43,El Ingenio,9.006107,-79.520593,2015-04-07 02:27:18 UTC,2015-04-07 02:27:18 UTC
44,Entrada Club X,9.007657,-79.520585,2015-04-07 02:27:18 UTC,2015-04-07 02:27:18 UTC
50,Plaza Mirage,9.006622,-79.533766,2015-04-07 02:27:18 UTC,2015-04-07 02:27:18 UTC
51,Plaza Mirage,9.004983,-79.533122,2015-04-07 02:27:18 UTC,2015-04-07 02:27:18 UTC
52,Power Club,9.002898,-79.533225,2015-04-07 02:27:18 UTC,2015-04-07 02:27:18 UTC
53,Super 99 de Pribanco,9.000724,-79.533082,2015-04-07 02:27:18 UTC,2015-04-07 02:27:18 UTC
54,la Alameda,8.998416,-79.53351,2015-04-07 02:27:18 UTC,2015-04-07 02:27:18 UTC
56,Antiguo Depósito,8.996579,-79.533559,2015-04-07 02:27:18 UTC,2015-04-07 02:27:18 UTC
62,Viejo Veranillo R,8.980558,-79.536621,2015-04-07 02:27:18 UTC,2015-04-13 18:12:58 UTC
63,Viejo Veranillo I,8.981221,-79.536772,2015-04-07 02:27:18 UTC,2015-04-13 18:13:24 UTC
65,Universidad de Panamá I,8.984646,-79.535249,2015-04-07 02:27:18 UTC,2015-04-13 18:14:28 UTC
67,Loma la Pava,8.993183,-79.529992,2015-04-07 02:27:18 UTC,2015-04-07 02:27:18 UTC
73,Raenco,9.004559,-79.521719,2015-04-07 02:27:18 UTC,2015-04-07 02:27:18 UTC
74,Raenco (Pueblo Nuevo),9.004494,-79.521493,2015-04-07 02:27:18 UTC,2015-04-07 02:27:18 UTC
75,Sub Estación de Bethania,9.005225,-79.522407,2015-04-07 02:27:18 UTC,2015-04-07 02:27:18 UTC
76,Yuyin Luzcando,9.007625,-79.522817,2015-04-07 02:27:18 UTC,2015-04-07 02:27:18 UTC
77,Super 99 Bethania,9.011371,-79.525325,2015-04-07 02:27:18 UTC,2015-04-07 02:27:18 UTC
79,IPHE,9.006746,-79.527867,2015-04-07 02:27:18 UTC,2015-04-07 02:27:18 UTC
80,Calle 66 Oeste,9.004747,-79.526972,2015-04-07 02:27:18 UTC,2015-04-07 02:27:18 UTC
84,Edificio Carnaval,9.016142,-79.517981,2015-04-07 02:27:18 UTC,2015-04-07 02:27:18 UTC
88,del Cementerio,9.021906,-79.514927,2015-04-07 02:27:18 UTC,2015-04-07 02:27:18 UTC
89,Bandag,9.022574,-79.514466,2015-04-07 02:27:18 UTC,2015-04-07 02:27:18 UTC
91,Estrella Azul,9.023527,-79.512616,2015-04-07 02:27:18 UTC,2015-04-07 02:27:18 UTC
92,Gran Estación,9.028293,-79.507037,2015-04-07 02:27:18 UTC,2015-04-07 02:27:18 UTC
93,Machetazo San Miguelito,9.029618,-79.506909,2015-04-07 02:27:18 UTC,2015-04-07 02:27:18 UTC
94,del Hospital,9.031478,-79.508281,2015-04-07 02:27:18 UTC,2015-04-07 02:27:18 UTC
96,Pan de Azúcar,9.038095,-79.507932,2015-04-07 02:27:18 UTC,2015-04-07 02:27:18 UTC
97,Pan de Azúcar,9.039076,-79.508072,2015-04-07 02:27:18 UTC,2015-04-07 02:27:18 UTC
98,Rodapán,9.040888,-79.50858,2015-04-07 02:27:18 UTC,2015-04-07 02:27:18 UTC
59,Cervecería Nacional I,8.989494,-79.533467,2015-04-07 02:27:18 UTC,2015-04-14 22:57:35 UTC
57,La Loceria I,8.993667,-79.534195,2015-04-07 02:27:18 UTC,2015-04-14 22:57:58 UTC
58,La Loceria R,8.993971,-79.53379,2015-04-07 02:27:18 UTC,2015-04-14 22:57:50 UTC
48,El Dorado I,9.009789,-79.534533,2015-04-07 02:27:18 UTC,2015-04-15 14:23:20 UTC
49,El Dorado R,9.009606,-79.534154,2015-04-07 02:27:18 UTC,2015-04-15 14:23:28 UTC
83,Edificio Bolívar I,9.013197,-79.517738,2015-04-07 02:27:18 UTC,2015-04-15 14:26:26 UTC
81,Escuela Manuel E. Amador I,9.008552,-79.518835,2015-04-07 02:27:18 UTC,2015-04-15 14:27:05 UTC
46,Universidad Tecnológica I,9.020108,-79.531805,2015-04-07 02:27:18 UTC,2015-04-15 14:27:58 UTC
47,Villa las Fuentes I,9.014913,-79.535286,2015-04-07 02:27:18 UTC,2015-04-15 14:28:37 UTC
45,Santa María I,9.021146,-79.529563,2015-04-07 02:27:18 UTC,2015-04-15 14:28:17 UTC
90,Estrella Azul R,9.023146,-79.512885,2015-04-07 02:27:18 UTC,2015-04-15 15:38:57 UTC
16,Estación de Metro Vía Argentina,8.989367,-79.522235,2015-04-07 02:27:18 UTC,2015-04-15 15:10:19 UTC
66,Loma la Pava R,8.993093,-79.529762,2015-04-07 02:27:18 UTC,2015-04-15 15:40:08 UTC
71,Bethania I,9.002334,-79.52336,2015-04-07 02:27:18 UTC,2015-04-15 15:40:30 UTC
42,El Ingenio R,9.006148,-79.520164,2015-04-07 02:27:18 UTC,2015-04-15 15:40:58 UTC
82,Edificio Cosmopolitan,9.012076,-79.517385,2015-04-07 02:27:18 UTC,2015-04-15 15:41:41 UTC
95,Escuela Rubiano I,9.036487,-79.506765,2015-04-07 02:27:18 UTC,2015-04-15 15:43:21 UTC
10,Hospital Nacional,8.972333,-79.532956,2015-04-07 02:27:18 UTC,2015-04-15 16:29:35 UTC
25,Martín Sosa I,8.977241,-79.534884,2015-04-07 02:27:18 UTC,2015-04-15 16:32:04 UTC
31,Aquilino de la Guardia R,8.974719,-79.521081,2015-04-07 02:27:18 UTC,2015-04-16 16:31:37 UTC
19,Furniture City I,8.995582,-79.519574,2015-04-07 02:27:18 UTC,2015-04-24 19:51:10 UTC
99,Moya,9.042247,-79.508148,2015-04-07 02:27:18 UTC,2015-04-07 02:27:18 UTC
102,Piquera de Rutas interna de Veranillo,9.047365,-79.507097,2015-04-07 02:27:18 UTC,2015-04-07 02:27:18 UTC
103,Centro Comercial Los Andes,9.048902,-79.508126,2015-04-07 02:27:18 UTC,2015-04-07 02:27:18 UTC
104,Centro Comercial Los Andes,9.049143,-79.508602,2015-04-07 02:27:18 UTC,2015-04-07 02:27:18 UTC
69,Calle 64 Oeste R,8.998716,-79.525729,2015-04-07 02:27:18 UTC,2015-04-26 22:40:40 UTC
40,Plaza Córdoba I,9.002467,-79.520236,2015-04-07 02:27:18 UTC,2015-04-26 21:17:41 UTC
68,Multiláminas R,8.996684,-79.527159,2015-04-07 02:27:18 UTC,2015-04-26 22:39:17 UTC
86,Instituto Comercial R,9.016962,-79.517288,2015-04-07 02:27:18 UTC,2015-04-26 22:43:39 UTC
85,Instituto Comercial I,9.016715,-79.517595,2015-04-07 02:27:18 UTC,2015-04-26 22:43:53 UTC
105,Industrias de Buena Voluntad,9.051712,-79.509738,2015-04-07 02:27:18 UTC,2015-04-07 02:27:18 UTC
106,Industrias de Buena Voluntad,9.053189,-79.509388,2015-04-07 02:27:18 UTC,2015-04-07 02:27:18 UTC
107,Ojo de Agua,9.055801,-79.509406,2015-04-07 02:27:18 UTC,2015-04-07 02:27:18 UTC
109,Cruce San Isidro,9.063892,-79.511666,2015-04-07 02:27:18 UTC,2015-04-07 02:27:18 UTC
110,San Isidro,9.064116,-79.511592,2015-04-07 02:27:18 UTC,2015-04-07 02:27:18 UTC
111,la entrada de San Isidro (policlínica),9.064251,-79.511375,2015-04-07 02:27:18 UTC,2015-04-07 02:27:18 UTC
112,la entrada de San Isidro (policlínica),9.064443,-79.511419,2015-04-07 02:27:18 UTC,2015-04-07 02:27:18 UTC
113,Campo Verde,9.065664,-79.515147,2015-04-07 02:27:18 UTC,2015-04-07 02:27:18 UTC
114,Campo Verde (Pozuelo),9.06536,-79.515696,2015-04-07 02:27:18 UTC,2015-04-07 02:27:18 UTC
115,Banco Nacional de Panamá Milla 8,9.066455,-79.517256,2015-04-07 02:27:18 UTC,2015-04-07 02:27:18 UTC
120,ULAPS,9.079611,-79.526494,2015-04-07 02:27:18 UTC,2015-04-07 02:27:18 UTC
126,Meconsa,9.109894,-79.541541,2015-04-07 02:27:18 UTC,2015-04-07 02:27:18 UTC
127,Meconsa,9.109592,-79.542019,2015-04-07 02:27:18 UTC,2015-04-07 02:27:18 UTC
128,Judith,9.113368,-79.543301,2015-04-07 02:27:18 UTC,2015-04-07 02:27:18 UTC
129,Judith,9.113096,-79.54343,2015-04-07 02:27:18 UTC,2015-04-07 02:27:18 UTC
130,Escuela Melchor Lasso,9.116361,-79.54469,2015-04-07 02:27:18 UTC,2015-04-07 02:27:18 UTC
131,Calle 2da,9.118157,-79.544148,2015-04-07 02:27:18 UTC,2015-04-07 02:27:18 UTC
132, Calle 4 Ciudad Bolívar,9.121377,-79.54461,2015-04-07 02:27:18 UTC,2015-04-07 02:27:18 UTC
133,Calle 7,9.123866,-79.544427,2015-04-07 02:27:18 UTC,2015-04-07 02:27:18 UTC
134,Calle 7ma Alcalde Díaz,9.123612,-79.545699,2015-04-07 02:27:18 UTC,2015-04-07 02:27:18 UTC
135,Santa Teresa,9.127002,-79.545457,2015-04-07 02:27:18 UTC,2015-04-07 02:27:18 UTC
136,Ciudad Bolívar R,9.13065,-79.547692,2015-04-07 02:27:18 UTC,2015-04-07 02:27:18 UTC
137,Calle Nata,9.132944,-79.54895,2015-04-07 02:27:18 UTC,2015-04-07 02:27:18 UTC
138,Villa Bolivariana,9.136069,-79.552549,2015-04-07 02:27:18 UTC,2015-04-07 02:27:18 UTC
139,Salida El Amanecer,9.138654,-79.552689,2015-04-07 02:27:18 UTC,2015-04-07 02:27:18 UTC
140,Altos Alcalde Díaz,9.124571,-79.551669,2015-04-07 02:27:18 UTC,2015-04-07 02:27:18 UTC
141,Abarrotería Griselda,9.124666,-79.550119,2015-04-07 02:27:18 UTC,2015-04-07 02:27:18 UTC
142,Corregiduría Alcalde Díaz,9.123866,-79.556959,2015-04-07 02:27:18 UTC,2015-04-07 02:27:18 UTC
143,Iglesia Alcalde Díaz,9.121687,-79.557989,2015-04-07 02:27:18 UTC,2015-04-07 02:27:18 UTC
144,Calle Las Tablas,9.120752,-79.557141,2015-04-07 02:27:18 UTC,2015-04-07 02:27:18 UTC
145,Bomberos Alcalde Díaz,9.118681,-79.555207,2015-04-07 02:27:18 UTC,2015-04-07 02:27:18 UTC
146,Calle José S. Guevara,9.116239,-79.554851,2015-04-07 02:27:18 UTC,2015-04-07 02:27:18 UTC
147,Centro de Salud Alcalde Díaz,9.112463,-79.555666,2015-04-07 02:27:18 UTC,2015-04-07 02:27:18 UTC
148,Entrada Alcalde Díaz,9.11037,-79.555559,2015-04-07 02:27:18 UTC,2015-04-07 02:27:18 UTC
149,Alcalde Díaz,9.109936,-79.555577,2015-04-07 02:27:18 UTC,2015-04-07 02:27:18 UTC
150,La Curva,9.114556,-79.567375,2015-04-07 02:27:18 UTC,2015-04-07 02:27:18 UTC
151,La Esperanza,9.121267,-79.574143,2015-04-07 02:27:18 UTC,2015-04-07 02:27:18 UTC
152,San Pablo,9.127259,-79.582203,2015-04-07 02:27:18 UTC,2015-04-07 02:27:18 UTC
153,Villa Nueva,9.124993,-79.588141,2015-04-07 02:27:18 UTC,2015-04-07 02:27:18 UTC
154,Entrada de San Vicente,9.122747,-79.596147,2015-04-07 02:27:18 UTC,2015-04-07 02:27:18 UTC
155,Condado del Rey,9.024272,-79.524442,2015-04-07 02:27:18 UTC,2015-04-07 02:27:18 UTC
156,Condado del Rey,9.024683,-79.524268,2015-04-07 02:27:18 UTC,2015-04-07 02:27:18 UTC
157,Los Libertadores,9.025986,-79.52169,2015-04-07 02:27:18 UTC,2015-04-07 02:27:18 UTC
158,Los Libertadores,9.026092,-79.520792,2015-04-07 02:27:18 UTC,2015-04-07 02:27:18 UTC
159,La Universidad Santa María la Antigua,9.028635,-79.519676,2015-04-07 02:27:18 UTC,2015-04-07 02:27:18 UTC
160,La Universidad Santa María la Antigua,9.029191,-79.519064,2015-04-07 02:27:18 UTC,2015-04-07 02:27:18 UTC
161,Limajo,9.031259,-79.516892,2015-04-07 02:27:18 UTC,2015-04-07 02:27:18 UTC
162,Artec,9.032216,-79.511847,2015-04-07 02:27:18 UTC,2015-04-07 02:27:18 UTC
164,PARADA 8,9.031779,-79.500192,2015-04-07 02:27:18 UTC,2015-04-07 02:27:18 UTC
174,El Parador Pedregal,9.058427,-79.432504,2015-04-07 02:27:18 UTC,2015-04-07 02:27:18 UTC
175,Balmoral,9.059137,-79.432579,2015-04-07 02:27:18 UTC,2015-04-07 02:27:18 UTC
108,Ojo de Agua R,9.055808,-79.509177,2015-04-07 02:27:18 UTC,2015-04-15 15:44:31 UTC
116,Milla 8 R,9.068751,-79.51856,2015-04-07 02:27:18 UTC,2015-04-15 15:45:33 UTC
117,Milla 8 I,9.06878,-79.518921,2015-04-07 02:27:18 UTC,2015-04-15 15:45:40 UTC
119,Villa Zaita R,9.077455,-79.525563,2015-04-07 02:27:18 UTC,2015-04-15 15:46:24 UTC
118,Villa Zaita I,9.077264,-79.525802,2015-04-07 02:27:18 UTC,2015-04-15 15:46:30 UTC
122,Las Lajas R,9.088102,-79.531472,2015-04-07 02:27:18 UTC,2015-04-15 15:47:21 UTC
124,Escuela Francisco Beckman R,9.098908,-79.531934,2015-04-07 02:27:18 UTC,2015-04-15 15:48:08 UTC
123,Gonzalillo R,9.094575,-79.53203,2015-04-07 02:27:18 UTC,2015-04-15 15:47:50 UTC
125,La Cabima R,9.107696,-79.536526,2015-04-07 02:27:18 UTC,2015-04-15 15:48:48 UTC
100,San José I (Interamericana),9.043925,-79.507804,2015-04-07 02:27:18 UTC,2015-04-15 17:14:15 UTC
177,Inadeh R,9.069504,-79.399846,2015-04-07 02:27:18 UTC,2015-04-16 16:41:37 UTC
178,Inadeh I,9.069712,-79.398951,2015-04-07 02:27:18 UTC,2015-04-16 16:41:48 UTC
179,Torremolino R,9.069318,-79.393001,2015-04-07 02:27:19 UTC,2015-04-16 16:42:00 UTC
182,Pantanal I,9.074171,-79.388999,2015-04-07 02:27:19 UTC,2015-04-16 16:46:24 UTC
185,Leones R,9.082903,-79.384678,2015-04-07 02:27:19 UTC,2015-04-16 16:50:55 UTC
181,Aeropuerto I,9.071421,-79.389047,2015-04-07 02:27:19 UTC,2015-04-16 18:54:56 UTC
184,Bomberos de Tocumen I,9.080792,-79.384879,2015-04-07 02:27:19 UTC,2015-04-16 16:50:27 UTC
187,San Antonio R,9.088436,-79.382164,2015-04-07 02:27:19 UTC,2015-04-16 17:53:26 UTC
191,Corregiduría Tocumen R,9.096726,-79.375368,2015-04-07 02:27:19 UTC,2015-04-16 17:54:24 UTC
188,Calle Van Der Hans R,9.089744,-79.380856,2015-04-07 02:27:19 UTC,2015-04-16 17:53:33 UTC
189,Escuela Ricardo J. Alfaro R,9.091513,-79.379069,2015-04-07 02:27:19 UTC,2015-04-16 17:53:46 UTC
190,Calle Gelabert R,9.093638,-79.377009,2015-04-07 02:27:19 UTC,2015-04-16 17:54:06 UTC
192,Cruce de Tocumen R,9.097504,-79.370958,2015-04-07 02:27:19 UTC,2015-04-16 17:54:36 UTC
186,Morelo R,9.086725,-79.384407,2015-04-07 02:27:19 UTC,2015-04-16 17:52:34 UTC
183,La Morada R,9.077179,-79.386499,2015-04-07 02:27:19 UTC,2015-04-16 17:56:33 UTC
206,Metro Bus Patio 24 de Diciembre,9.10197,-79.358089,2015-04-07 02:27:19 UTC,2015-04-07 02:27:19 UTC
208,Piquera de Buses Balboa y Diablo,8.961698,-79.541168,2015-04-07 02:27:19 UTC,2015-04-07 02:27:19 UTC
209,Plaza 5 de Mayo,8.96055,-79.540443,2015-04-07 02:27:19 UTC,2015-04-07 02:27:19 UTC
215,Edificio Inteligente,8.984333,-79.516549,2015-04-07 02:27:19 UTC,2015-04-07 02:27:19 UTC
216,HSBC,8.980593,-79.522846,2015-04-07 02:27:19 UTC,2015-04-07 02:27:19 UTC
217,Plaza New York,8.982119,-79.520245,2015-04-07 02:27:19 UTC,2015-04-07 02:27:19 UTC
218,Hospital América,9.000997,-79.516811,2015-04-07 02:27:19 UTC,2015-04-07 02:27:19 UTC
166,Severino Hernández I,9.029374,-79.496319,2015-04-07 02:27:18 UTC,2015-04-26 22:47:37 UTC
169,Coca Cola R,9.034632,-79.485318,2015-04-07 02:27:18 UTC,2015-04-26 23:20:07 UTC
167,Rooselvet I,9.030868,-79.491486,2015-04-07 02:27:18 UTC,2015-04-26 22:50:24 UTC
171,El Crisol I,9.043713,-79.472095,2015-04-07 02:27:18 UTC,2015-04-26 22:51:10 UTC
168,Coca Cola I,9.033615,-79.48742,2015-04-07 02:27:18 UTC,2015-04-26 22:56:53 UTC
170,Plaza Conquistador R,9.039991,-79.476809,2015-04-07 02:27:18 UTC,2015-04-26 22:59:09 UTC
173,Barriada San Antonio R,9.051667,-79.444923,2015-04-07 02:27:18 UTC,2015-04-26 23:09:31 UTC
176,Calle 139 Este I,9.059952,-79.427848,2015-04-07 02:27:18 UTC,2015-04-26 23:46:25 UTC
172,Los Pueblos R,9.050451,-79.450237,2015-04-07 02:27:18 UTC,2015-04-26 23:52:25 UTC
219,Hospital América,9.00138,-79.516819,2015-04-07 02:27:19 UTC,2015-04-07 02:27:19 UTC
220,ULACIT,9.004261,-79.512391,2015-04-07 02:27:19 UTC,2015-04-07 02:27:19 UTC
221,12 de Octubre,9.009517,-79.506066,2015-04-07 02:27:19 UTC,2015-04-07 02:27:19 UTC
222,Calle 92 Este-I,9.014579,-79.49931,2015-04-07 02:27:19 UTC,2015-04-07 02:27:19 UTC
223,Calle 92 Este-R,9.014741,-79.498745,2015-04-07 02:27:19 UTC,2015-04-07 02:27:19 UTC
224,Santa Elena,9.017538,-79.494525,2015-04-07 02:27:19 UTC,2015-04-07 02:27:19 UTC
225,Escuela República de Haití,9.018598,-79.492672,2015-04-07 02:27:19 UTC,2015-04-07 02:27:19 UTC
226,Escuela República de Haití,9.018762,-79.492795,2015-04-07 02:27:19 UTC,2015-04-07 02:27:19 UTC
227,Monte Oscuro,9.020129,-79.49166,2015-04-07 02:27:19 UTC,2015-04-07 02:27:19 UTC
228,Torres Vía España,9.021528,-79.490115,2015-04-07 02:27:19 UTC,2015-04-07 02:27:19 UTC
229,Torres Vía España,9.021692,-79.489638,2015-04-07 02:27:19 UTC,2015-04-07 02:27:19 UTC
230,El Balboa,9.02408,-79.486587,2015-04-07 02:27:19 UTC,2015-04-07 02:27:19 UTC
231,Villa Lorena,9.027277,-79.481185,2015-04-07 02:27:19 UTC,2015-04-07 02:27:19 UTC
232,Villa Lorena,9.027382,-79.481349,2015-04-07 02:27:19 UTC,2015-04-07 02:27:19 UTC
233,Plaza Carolina,9.02962,-79.477316,2015-04-07 02:27:19 UTC,2015-04-07 02:27:19 UTC
234,Campo Limbergh,9.032759,-79.474084,2015-04-07 02:27:19 UTC,2015-04-07 02:27:19 UTC
235,Santa Clara,9.032604,-79.474404,2015-04-07 02:27:19 UTC,2015-04-07 02:27:19 UTC
236,Santa Clara,9.034452,-79.473113,2015-04-07 02:27:19 UTC,2015-04-07 02:27:19 UTC
237,Ciuada deportiva Irving Saladino,9.03513,-79.472421,2015-04-07 02:27:19 UTC,2015-04-07 02:27:19 UTC
238,Estadio Rommel Fernández,9.036786,-79.470243,2015-04-07 02:27:19 UTC,2015-04-07 02:27:19 UTC
239,La birra,9.037202,-79.469516,2015-04-07 02:27:19 UTC,2015-04-07 02:27:19 UTC
240,San Pedro,9.038396,-79.464548,2015-04-07 02:27:19 UTC,2015-04-07 02:27:19 UTC
241,Tabernaculo de la Fe,9.038484,-79.464803,2015-04-07 02:27:19 UTC,2015-04-07 02:27:19 UTC
242,Llano Bonito 2,9.040783,-79.45894,2015-04-07 02:27:19 UTC,2015-04-07 02:27:19 UTC
243,San Pedro,9.040611,-79.459801,2015-04-07 02:27:19 UTC,2015-04-07 02:27:19 UTC
244,Llano Bonito 1,9.04198,-79.457266,2015-04-07 02:27:19 UTC,2015-04-07 02:27:19 UTC
245,del Super Extra,9.044937,-79.451166,2015-04-07 02:27:19 UTC,2015-04-07 02:27:19 UTC
246,Juan Díaz,9.046221,-79.445749,2015-04-07 02:27:19 UTC,2015-04-07 02:27:19 UTC
247,Juan Díaz,9.048266,-79.439709,2015-04-07 02:27:19 UTC,2015-04-07 02:27:19 UTC
248,J. J. Vallarino,9.055137,-79.434519,2015-04-07 02:27:19 UTC,2015-04-07 02:27:19 UTC
249,Entrada de San Antonio,9.053172,-79.44407,2015-04-07 02:27:19 UTC,2015-04-07 02:27:19 UTC
250,San Antonio,9.056,-79.445652,2015-04-07 02:27:19 UTC,2015-04-07 02:27:19 UTC
251,Iglesia San Antonio,9.058395,-79.447809,2015-04-07 02:27:19 UTC,2015-04-07 02:27:19 UTC
252,Altos de Cerro Viento,9.06081,-79.448254,2015-04-07 02:27:19 UTC,2015-04-07 02:27:19 UTC
253,Cerro Viento,9.064275,-79.447031,2015-04-07 02:27:19 UTC,2015-04-07 02:27:19 UTC
254,Camino Real,9.068566,-79.446618,2015-04-07 02:27:19 UTC,2015-04-07 02:27:19 UTC
255,Brisas Occidente,9.070892,-79.45769,2015-04-07 02:27:19 UTC,2015-04-07 02:27:19 UTC
256,Las Arcadas,9.070325,-79.454096,2015-04-07 02:27:19 UTC,2015-04-07 02:27:19 UTC
258,Calle 2 Occidente,9.06979,-79.461021,2015-04-07 02:27:19 UTC,2015-04-07 02:27:19 UTC
259,Versalles,9.041739,-79.419737,2015-04-07 02:27:19 UTC,2015-04-07 02:27:19 UTC
262,Calle Radial N,9.044483,-79.426593,2015-04-07 02:27:19 UTC,2015-04-07 02:27:19 UTC
266,Celio C,9.042852,-79.417419,2015-04-07 02:27:19 UTC,2015-04-07 02:27:19 UTC
267,Calle Circunvalación,9.044544,-79.414507,2015-04-07 02:27:19 UTC,2015-04-07 02:27:19 UTC
269,Antigua Estacion de Buses de Don Bosco,9.0475,-79.410868,2015-04-07 02:27:19 UTC,2015-04-07 02:27:19 UTC
270,Calle Escandinavos,9.047874,-79.410682,2015-04-07 02:27:19 UTC,2015-04-07 02:27:19 UTC
271,Calle 7,9.049887,-79.411948,2015-04-07 02:27:19 UTC,2015-04-07 02:27:19 UTC
286,Mañanitas,9.079733,-79.403719,2015-04-07 02:27:19 UTC,2015-04-07 02:27:19 UTC
287,Las Mañanas,9.079722,-79.407517,2015-04-07 02:27:19 UTC,2015-04-07 02:27:19 UTC
288,Los Nogales 2,9.0783,-79.41054,2015-04-07 02:27:19 UTC,2015-04-07 02:27:19 UTC
289,Los Nogales,9.077169,-79.411497,2015-04-07 02:27:19 UTC,2015-04-07 02:27:19 UTC
265,Calle Radial B I,9.048647,-79.43641,2015-04-07 02:27:19 UTC,2015-04-15 14:01:28 UTC
261,Calle Radial M I,9.042226,-79.427483,2015-04-07 02:27:19 UTC,2015-04-15 14:04:54 UTC
263,Calle Radial J R,9.044791,-79.429854,2015-04-07 02:27:19 UTC,2015-04-15 14:04:41 UTC
260,Calle Radial R I,9.041209,-79.423422,2015-04-07 02:27:19 UTC,2015-04-15 14:05:06 UTC
264,Concepción R,9.046634,-79.434232,2015-04-07 02:27:19 UTC,2015-04-15 14:07:14 UTC
210,Abastos R,8.965701,-79.546619,2015-04-07 02:27:19 UTC,2015-04-15 16:28:20 UTC
257,Camino Real (Bethanía),9.009114,-79.527417,2015-04-07 02:27:19 UTC,2015-04-15 14:39:21 UTC
211,Abastos I,8.966148,-79.546624,2015-04-07 02:27:19 UTC,2015-04-15 16:28:39 UTC
213,Policía Nacional I,8.966085,-79.55137,2015-04-07 02:27:19 UTC,2015-04-15 16:55:01 UTC
204,El Coloso R,9.078557,-79.359698,2015-04-07 02:27:19 UTC,2015-04-16 17:47:16 UTC
195,La Bajada I,9.091143,-79.365814,2015-04-07 02:27:19 UTC,2015-04-16 17:55:21 UTC
194,La Bajada R,9.091264,-79.366028,2015-04-07 02:27:19 UTC,2015-04-16 17:49:08 UTC
197,La Siesta Vieja R,9.082429,-79.366844,2015-04-07 02:27:19 UTC,2015-04-16 17:48:00 UTC
199,Tocumen i,9.077362,-79.364613,2015-04-07 02:27:19 UTC,2015-04-16 17:47:43 UTC
200,Tocumen R,9.077079,-79.363893,2015-04-07 02:27:19 UTC,2015-04-16 17:47:23 UTC
205,Estación La Siesta,9.080501,-79.354779,2015-04-07 02:27:19 UTC,2015-04-16 17:43:21 UTC
203,El Coloso I,9.079002,-79.35987,2015-04-07 02:27:19 UTC,2015-04-16 17:47:32 UTC
285,Mañanitas R,9.079844,-79.399647,2015-04-07 02:27:19 UTC,2015-04-16 20:22:59 UTC
196,El Brillante I,9.086709,-79.366077,2015-04-07 02:27:19 UTC,2015-04-16 17:48:17 UTC
207,Colegio Nacional,8.959535,-79.542603,2015-04-07 02:27:19 UTC,2015-04-17 15:43:34 UTC
290,Santa Mónica,9.073545,-79.413482,2015-04-07 02:27:19 UTC,2015-04-07 02:27:19 UTC
291,Parque Real,9.071713,-79.414265,2015-04-07 02:27:19 UTC,2015-04-07 02:27:19 UTC
292,Estacion de Buses de Pedregal,9.067536,-79.420541,2015-04-07 02:27:19 UTC,2015-04-07 02:27:19 UTC
293,San Joaquín,9.07007,-79.423975,2015-04-07 02:27:19 UTC,2015-04-07 02:27:19 UTC
294,Rana de Oro,9.071374,-79.426571,2015-04-07 02:27:19 UTC,2015-04-07 02:27:19 UTC
295,La Riviera,9.070229,-79.428288,2015-04-07 02:27:19 UTC,2015-04-07 02:27:19 UTC
296,Villalobos,9.069625,-79.429071,2015-04-07 02:27:19 UTC,2015-04-07 02:27:19 UTC
297,del Nazareno,9.064958,-79.431485,2015-04-07 02:27:19 UTC,2015-04-07 02:27:19 UTC
299,Belén,9.082805,-79.39748,2015-04-07 02:27:19 UTC,2015-04-07 02:27:19 UTC
300,Villa Belén,9.083621,-79.394787,2015-04-07 02:27:19 UTC,2015-04-07 02:27:19 UTC
301,Las Trancas,9.085125,-79.391906,2015-04-07 02:27:19 UTC,2015-04-07 02:27:19 UTC
280,Colonias del Prado,9.062034,-79.416084,2015-04-07 02:27:19 UTC,2015-04-27 00:11:57 UTC
273,Calle 5C R,9.050623,-79.416862,2015-04-07 02:27:19 UTC,2015-04-27 00:13:44 UTC
281,Terremar I,9.049664,-79.408069,2015-04-07 02:27:19 UTC,2015-04-27 00:12:35 UTC
275,Bello Horizonte I,9.053103,-79.41014,2015-04-07 02:27:19 UTC,2015-04-27 00:13:03 UTC
277,Los Caobos,9.057516,-79.412956,2015-04-07 02:27:19 UTC,2015-04-27 00:18:04 UTC
276,Parada de Santa Rita,9.055068,-79.411401,2015-04-07 02:27:19 UTC,2015-04-27 00:17:44 UTC
283,Vereda 0 R,9.043562,-79.410135,2015-04-07 02:27:19 UTC,2015-04-27 00:14:05 UTC
268,Avenida Primera I,9.047333,-79.410317,2015-04-07 02:27:19 UTC,2015-04-27 00:15:14 UTC
282,Vereda 1 I,9.04442,-79.408686,2015-04-07 02:27:19 UTC,2015-04-27 00:15:02 UTC
274,Los Sauces R,9.052493,-79.41802,2015-04-07 02:27:19 UTC,2015-04-27 00:15:33 UTC
279,Calle 1C R,9.059139,-79.419549,2015-04-07 02:27:19 UTC,2015-04-27 00:16:26 UTC
278,Calle 3B R,9.056704,-79.418074,2015-04-07 02:27:19 UTC,2015-04-27 00:16:14 UTC
272,Calle 6 R,9.051079,-79.41434,2015-04-07 02:27:19 UTC,2015-04-27 00:17:01 UTC
302,Mañanitas Interna,9.086142,-79.389047,2015-04-07 02:27:19 UTC,2015-04-07 02:27:19 UTC
303,T de Torrijos-Carter,9.07202,-79.489388,2015-04-07 02:27:19 UTC,2015-04-07 02:27:19 UTC
304,El Mirador,9.075633,-79.491212,2015-04-07 02:27:19 UTC,2015-04-07 02:27:19 UTC
305,Calle C-5,9.077349,-79.491346,2015-04-07 02:27:19 UTC,2015-04-07 02:27:19 UTC
306,Estación Torrijos-Carter,9.078381,-79.492007,2015-04-07 02:27:19 UTC,2015-04-07 02:27:19 UTC
307,Centro de Salud de Torrijos-Carter,9.080495,-79.491727,2015-04-07 02:27:19 UTC,2015-04-07 02:27:19 UTC
308,Estación Santa Librada,9.080231,-79.493315,2015-04-07 02:27:19 UTC,2015-04-07 02:27:19 UTC
309,Santa Librada,9.080543,-79.494254,2015-04-07 02:27:19 UTC,2015-04-07 02:27:19 UTC
310,Santa Marta,9.078165,-79.496223,2015-04-07 02:27:19 UTC,2015-04-07 02:27:19 UTC
311,Guandú,9.076321,-79.497038,2015-04-07 02:27:19 UTC,2015-04-07 02:27:19 UTC
312,Calle C-10,9.075219,-79.498605,2015-04-07 02:27:19 UTC,2015-04-07 02:27:19 UTC
313,Santa Librada 4 Etapa,9.07434,-79.500997,2015-04-07 02:27:19 UTC,2015-04-07 02:27:19 UTC
314,Escuela Santa Librada,9.07345,-79.503164,2015-04-07 02:27:19 UTC,2015-04-07 02:27:19 UTC
315,Caja de Ahorros,9.074224,-79.504452,2015-04-07 02:27:19 UTC,2015-04-07 02:27:19 UTC
316,Santa Librada,9.072332,-79.505619,2015-04-07 02:27:19 UTC,2015-04-07 02:27:19 UTC
317,Policlinica Generoso Guardia,9.071771,-79.505707,2015-04-07 02:27:19 UTC,2015-04-07 02:27:19 UTC
318,Entrada del Valle de San Isidro,9.071045,-79.506367,2015-04-07 02:27:19 UTC,2015-04-07 02:27:19 UTC
319,El Pueblito,9.069509,-79.505943,2015-04-07 02:27:19 UTC,2015-04-07 02:27:19 UTC
320,Calle A,9.072465,-79.508218,2015-04-07 02:27:19 UTC,2015-04-07 02:27:19 UTC
321,del Cruce de Santa Librada,9.07416,-79.508035,2015-04-07 02:27:19 UTC,2015-04-07 02:27:19 UTC
322,Santa Librada 2 Etapa,9.075272,-79.50921,2015-04-07 02:27:19 UTC,2015-04-07 02:27:19 UTC
323,Escuela Santiago de la Guardia,9.073636,-79.51134,2015-04-07 02:27:19 UTC,2015-04-07 02:27:19 UTC
324,Santa Librada 3 Etapa,9.078022,-79.511581,2015-04-07 02:27:19 UTC,2015-04-07 02:27:19 UTC
325,Santa Librada 7 Etapa,9.079568,-79.509645,2015-04-07 02:27:19 UTC,2015-04-07 02:27:19 UTC
326,Calle Las Peras,9.076851,-79.507392,2015-04-07 02:27:19 UTC,2015-04-07 02:27:19 UTC
327,5ª Etapa Santa Librada,9.078122,-79.506147,2015-04-07 02:27:19 UTC,2015-04-07 02:27:19 UTC
328,Santa Rita,9.076459,-79.503712,2015-04-07 02:27:19 UTC,2015-04-07 02:27:19 UTC
329,El Valle San Isidro,9.066775,-79.507295,2015-04-07 02:27:19 UTC,2015-04-07 02:27:19 UTC
330,Piquera de El Valle de San Isidro,9.074965,-79.515155,2015-04-07 02:27:19 UTC,2015-04-07 02:27:19 UTC
332,Club X,9.016031,-79.520762,2015-04-07 02:27:19 UTC,2015-04-07 02:27:19 UTC
333,Castilla de Oro,9.01468,-79.524338,2015-04-07 02:27:19 UTC,2015-04-07 02:27:19 UTC
334,Calle 72 Oeste,9.009146,-79.530314,2015-04-07 02:27:19 UTC,2015-04-07 02:27:19 UTC
335,FEMSA,9.006971,-79.531255,2015-04-07 02:27:19 UTC,2015-04-07 02:27:19 UTC
336,Estacion Mano de Piedra,9.05558,-79.489986,2015-04-07 02:27:19 UTC,2015-04-07 02:27:19 UTC
337,la Corregiduría de Mano de Piedra,9.059232,-79.492199,2015-04-07 02:27:19 UTC,2015-04-07 02:27:19 UTC
338,Entrada de Mano de Piedra,9.063067,-79.492554,2015-04-07 02:27:19 UTC,2015-04-07 02:27:19 UTC
339,Policía Mano de Piedra,9.063205,-79.490697,2015-04-07 02:27:19 UTC,2015-04-07 02:27:19 UTC
340,La Paz,9.06418,-79.488466,2015-04-07 02:27:19 UTC,2015-04-07 02:27:19 UTC
341,Valle de Urracá,9.068026,-79.488015,2015-04-07 02:27:19 UTC,2015-04-07 02:27:19 UTC
342,la Escuela Torrijos Carter,9.068683,-79.492779,2015-04-07 02:27:19 UTC,2015-04-07 02:27:19 UTC
343,Cerro Batea,9.063629,-79.495665,2015-04-07 02:27:19 UTC,2015-04-07 02:27:19 UTC
344,La Vilca,9.063004,-79.497585,2015-04-07 02:27:19 UTC,2015-04-07 02:27:19 UTC
345,Los Pinos,9.065557,-79.501587,2015-04-07 02:27:19 UTC,2015-04-07 02:27:19 UTC
346,La Fula,9.067401,-79.501888,2015-04-07 02:27:19 UTC,2015-04-07 02:27:19 UTC
347,Entrada El Pueblito,9.06882,-79.503304,2015-04-07 02:27:19 UTC,2015-04-07 02:27:19 UTC
348,Estacion de Buses de Ruta Interna Samaria,9.04833,-79.499959,2015-04-07 02:27:19 UTC,2015-04-07 02:27:19 UTC
349,Nuevo Veranillo,9.047352,-79.500085,2015-04-07 02:27:19 UTC,2015-04-07 02:27:19 UTC
350,Estacion de Buses de Veranillo,9.049455,-79.505011,2015-04-07 02:27:19 UTC,2015-04-07 02:27:19 UTC
351,Entrada de Calle M,9.038714,-79.493227,2015-04-07 02:27:19 UTC,2015-04-07 02:27:19 UTC
352,PARADA 7,9.038105,-79.495032,2015-04-07 02:27:19 UTC,2015-04-07 02:27:19 UTC
353,ruta interna de Moya,9.037509,-79.495844,2015-04-07 02:27:19 UTC,2015-04-07 02:27:19 UTC
354,la Escuela Alfredo Canton,9.037551,-79.496756,2015-04-07 02:27:19 UTC,2015-04-07 02:27:19 UTC
355,PARADA 5,9.035408,-79.492006,2015-04-07 02:27:19 UTC,2015-04-07 02:27:19 UTC
356,PARADA 6,9.037739,-79.492465,2015-04-07 02:27:19 UTC,2015-04-07 02:27:19 UTC
357,Clayton Externa R,8.993446,-79.581591,2015-04-07 02:27:19 UTC,2015-04-07 02:27:19 UTC
358,Entrada Ciudad del Saber,8.999747,-79.58583,2015-04-07 02:27:19 UTC,2015-04-13 17:06:23 UTC
359,Entrada Ciudad del Saber R,8.999662,-79.586023,2015-04-07 02:27:19 UTC,2015-04-13 17:06:12 UTC
361,Esclusas de Miraflores,8.9975,-79.590624,2015-04-07 02:27:19 UTC,2015-04-13 17:00:43 UTC
362,Calle Antón,8.979265,-79.569615,2015-04-07 02:27:19 UTC,2015-04-13 17:25:53 UTC
363,San Vicente,8.979305,-79.569138,2015-04-07 02:27:19 UTC,2015-04-07 02:27:19 UTC
364,Clayton Externa,8.99311,-79.581034,2015-04-07 02:27:19 UTC,2015-04-07 02:27:19 UTC
365,Meduca-R,8.985273,-79.574536,2015-04-07 02:27:19 UTC,2015-04-07 02:27:19 UTC
366,Meduca-I,8.985662,-79.574535,2015-04-07 02:27:19 UTC,2015-04-07 02:27:19 UTC
367,Corozal R,8.984381,-79.573489,2015-04-07 02:27:19 UTC,2015-04-07 02:27:19 UTC
368,Corozal ,8.983265,-79.572556,2015-04-07 02:27:19 UTC,2015-04-07 02:27:19 UTC
369,Diablo,8.97327,-79.565343,2015-04-07 02:27:19 UTC,2015-04-13 16:56:46 UTC
370,C. Ascanio Villalaz,8.959476,-79.557291,2015-04-07 02:27:19 UTC,2015-04-07 02:27:19 UTC
371,Teatro Balboa I,8.955801,-79.558634,2015-04-07 02:27:19 UTC,2015-04-13 16:35:00 UTC
372,City Bank,8.954134,-79.557419,2015-04-07 02:27:19 UTC,2015-04-07 02:27:19 UTC
373,Calle Van Hook I,8.940739,-79.551573,2015-04-07 02:27:19 UTC,2015-04-13 16:35:57 UTC
374,Figali-I,8.93622,-79.545328,2015-04-07 02:27:19 UTC,2015-04-07 02:27:19 UTC
375,Figali R,8.940604,-79.546574,2015-04-07 02:27:19 UTC,2015-04-13 16:36:42 UTC
376,Museo Frank Gehry,8.933485,-79.545139,2015-04-07 02:27:19 UTC,2015-04-07 02:27:19 UTC
377,Smithsonian,8.915764,-79.5316,2015-04-07 02:27:19 UTC,2015-04-07 02:27:19 UTC
378,Isla Perico R,8.915041,-79.527221,2015-04-07 02:27:19 UTC,2015-04-13 16:37:38 UTC
379,Isla Flamenco,8.910833,-79.522515,2015-04-07 02:27:19 UTC,2015-04-07 02:27:19 UTC
380,Iglesia del Carmen,8.980715,-79.527646,2015-04-07 02:27:19 UTC,2015-04-07 02:27:19 UTC
381,Crowne Plaza,8.982484,-79.528757,2015-04-07 02:27:19 UTC,2015-04-07 02:27:19 UTC
382,Manuel Espinoza Batista,8.985652,-79.531276,2015-04-07 02:27:19 UTC,2015-04-07 02:27:19 UTC
383,Markez-W-I,9.000191,-79.531972,2015-04-07 02:27:19 UTC,2015-04-07 02:27:19 UTC
384,Calle 63 Oeste,9.000111,-79.526079,2015-04-07 02:27:19 UTC,2015-04-07 02:27:19 UTC
385,Pato Brinks,9.000836,-79.529058,2015-04-07 02:27:19 UTC,2015-04-07 02:27:19 UTC
386,Escritor Ricardo Miró,8.99946,-79.523232,2015-04-07 02:27:19 UTC,2015-04-07 02:27:19 UTC
387,Galerías Obarrio,8.991215,-79.520271,2015-04-07 02:27:19 UTC,2015-04-07 02:27:19 UTC
388,Escuela Profesional,8.98287,-79.514206,2015-04-07 02:27:19 UTC,2015-04-07 02:27:19 UTC
390,Aquilino de la Guardia I,8.975908,-79.52189,2015-04-07 02:27:19 UTC,2015-04-07 02:27:19 UTC
391,Rhinos,8.97851,-79.52713,2015-04-07 02:27:19 UTC,2015-04-07 02:27:19 UTC
392,Federico Boyd,8.976767,-79.526873,2015-04-07 02:27:19 UTC,2015-04-07 02:27:19 UTC
393,Melchi,8.958688,-79.539559,2015-04-07 02:27:19 UTC,2015-04-07 02:27:19 UTC
394,Mercado de Mariscos,8.958206,-79.538999,2015-04-07 02:27:19 UTC,2015-04-07 02:27:19 UTC
395,Calle 12,8.957565,-79.540496,2015-04-07 02:27:19 UTC,2015-04-07 02:27:19 UTC
396,Escuela José de Malambo,8.953716,-79.540753,2015-04-07 02:27:19 UTC,2015-04-07 02:27:19 UTC
397,Parque de Santa Ana,8.953613,-79.538718,2015-04-07 02:27:19 UTC,2015-04-07 02:27:19 UTC
398,Salsipuedes,8.955078,-79.538037,2015-04-07 02:27:19 UTC,2015-04-07 02:27:19 UTC
399,Avenida B,8.956639,-79.53864,2015-04-07 02:27:19 UTC,2015-04-07 02:27:19 UTC
402,Boulevard Pacífica,8.977269,-79.509002,2015-04-07 02:27:19 UTC,2015-04-07 02:27:19 UTC
404,Vía Brasil,8.984952,-79.513596,2015-04-07 02:27:19 UTC,2015-04-07 02:27:19 UTC
405,IDAAN,8.989931,-79.516248,2015-04-07 02:27:19 UTC,2015-04-07 02:27:19 UTC
407,Calle Ernestina Sucre Tapia,8.98973,-79.521009,2015-04-07 02:27:19 UTC,2015-04-07 02:27:19 UTC
408,El Paical,8.99608,-79.53058,2015-04-07 02:27:19 UTC,2015-04-07 02:27:19 UTC
409,Vía Grecia,8.99435,-79.525739,2015-04-07 02:27:19 UTC,2015-04-07 02:27:19 UTC
410,El Carmen,8.99261,-79.523028,2015-04-07 02:27:19 UTC,2015-04-07 02:27:19 UTC
411,Parque Andrés Bello,8.989079,-79.526005,2015-04-07 02:27:19 UTC,2015-04-07 02:27:19 UTC
412,Monumento a Einstein,8.988454,-79.529007,2015-04-07 02:27:19 UTC,2015-04-07 02:27:19 UTC
413,Vía Argentina,8.987628,-79.530628,2015-04-07 02:27:19 UTC,2015-04-07 02:27:19 UTC
414,4 de Julio,8.959775,-79.542749,2015-04-07 02:27:19 UTC,2015-04-07 02:27:19 UTC
415,Instituto Nacional,8.957818,-79.54205,2015-04-07 02:27:19 UTC,2015-04-07 02:27:19 UTC
416,Escuela Justo Arosemena,8.954995,-79.542912,2015-04-07 02:27:19 UTC,2015-04-07 02:27:19 UTC
417,Junta Comunal El Chorrillo,8.953674,-79.542543,2015-04-07 02:27:19 UTC,2015-04-07 02:27:19 UTC
418,Central T Chorrillo,8.952696,-79.541113,2015-04-07 02:27:19 UTC,2015-04-07 02:27:19 UTC
419,Patio Pinel,8.952177,-79.543191,2015-04-07 02:27:19 UTC,2015-04-07 02:27:19 UTC
420,Cementerio Amador,8.952284,-79.545452,2015-04-07 02:27:19 UTC,2015-04-07 02:27:19 UTC
421,Parque Amelia Denis,8.951077,-79.546253,2015-04-07 02:27:19 UTC,2015-04-07 02:27:19 UTC
422,Calle 21 Oeste,8.951019,-79.543624,2015-04-07 02:27:19 UTC,2015-04-07 02:27:19 UTC
423,Parque de los Aburridos,8.951507,-79.542258,2015-04-07 02:27:19 UTC,2015-04-07 02:27:19 UTC
424,Universidad Nacional R,8.984301,-79.535183,2015-04-07 02:27:19 UTC,2015-04-07 02:27:19 UTC
425,Estación Iglesia del Carmen,8.982366,-79.527271,2015-04-07 02:27:19 UTC,2015-04-07 02:27:19 UTC
426,Artes y oficios,8.987747,-79.533052,2015-04-07 02:27:19 UTC,2015-04-07 02:27:19 UTC
427,Universidad Interamericana,8.984235,-79.528908,2015-04-07 02:27:19 UTC,2015-04-07 02:27:19 UTC
428,Calle Eusebio A. Morales,8.985912,-79.527668,2015-04-07 02:27:19 UTC,2015-04-07 02:27:19 UTC
429,Calle Guatemala,8.986318,-79.524986,2015-04-07 02:27:19 UTC,2015-04-07 02:27:19 UTC
430,Calle José de Fábrega,8.982974,-79.531872,2015-04-07 02:27:19 UTC,2015-04-07 02:27:19 UTC
431,Complejo Hospitalario Dr. Armulfo Arias Madrid,8.981308,-79.534259,2015-04-07 02:27:19 UTC,2015-04-07 02:27:19 UTC
432,UDELAS,8.97189,-79.562706,2015-04-07 02:27:19 UTC,2015-04-07 02:27:19 UTC
433,ANAM,8.974408,-79.558746,2015-04-07 02:27:19 UTC,2015-04-07 02:27:19 UTC
434,Saint Mary,8.979354,-79.559224,2015-04-07 02:27:19 UTC,2015-04-07 02:27:19 UTC
435,Calle Evans,8.982259,-79.557916,2015-04-07 02:27:19 UTC,2015-04-07 02:27:19 UTC
436,Ave. Canfield,8.988417,-79.555996,2015-04-07 02:27:19 UTC,2015-04-07 02:27:19 UTC
437,Centro Comercial Country,8.995283,-79.558462,2015-04-07 02:27:19 UTC,2015-04-07 02:27:19 UTC
438,Embajada Estados Unidos,8.998923,-79.559216,2015-04-07 02:27:19 UTC,2015-04-07 02:27:19 UTC
439,Colegio Javier,9.00383,-79.562816,2015-04-07 02:27:19 UTC,2015-04-07 02:27:19 UTC
440,Caja Seguro Social Clayton,9.005451,-79.566872,2015-04-07 02:27:19 UTC,2015-04-13 17:31:39 UTC
441,Zona Azúl,9.005905,-79.572972,2015-04-07 02:27:19 UTC,2015-04-13 17:31:51 UTC
442,Ave. Muir,9.005818,-79.576162,2015-04-07 02:27:19 UTC,2015-04-07 02:27:19 UTC
443,Centro Deportivo Clayton,9.002734,-79.581829,2015-04-07 02:27:19 UTC,2015-04-07 02:27:19 UTC
444,Ciudad del Saber,8.999598,-79.585304,2015-04-07 02:27:19 UTC,2015-04-13 17:03:56 UTC
445,Calle 134 Este,9.051614,-79.434981,2015-04-07 02:27:19 UTC,2015-04-07 02:27:19 UTC
446,Villa Cáceres,9.02087,-79.524255,2015-04-07 02:27:19 UTC,2015-04-07 02:27:19 UTC
447,Calle 76B Oeste,9.017953,-79.522478,2015-04-07 02:27:19 UTC,2015-04-07 02:27:19 UTC
448,Calle 74 Oeste,9.012077,-79.521657,2015-04-07 02:27:19 UTC,2015-04-07 02:27:19 UTC
449,Tortimasa,9.065861,-79.493701,2015-04-07 02:27:19 UTC,2015-04-07 02:27:19 UTC
450,T de Valle de Urracá,9.071402,-79.48895,2015-04-07 02:27:19 UTC,2015-04-07 02:27:19 UTC
451,Ave. Francisco Paredes,9.134747,-79.550465,2015-04-07 02:27:19 UTC,2015-04-07 02:27:19 UTC
452,Calle Los Rayitos,9.137158,-79.550272,2015-04-07 02:27:19 UTC,2015-04-07 02:27:19 UTC
453,Entrada El Amanecer,9.138408,-79.552101,2015-04-07 02:27:19 UTC,2015-04-07 02:27:19 UTC
454,Ave. Rayitos,9.138521,-79.550908,2015-04-07 02:27:19 UTC,2015-04-07 02:27:19 UTC
455,M/S Rayitos,9.140158,-79.55245,2015-04-07 02:27:19 UTC,2015-04-07 02:27:19 UTC
456,Ciudad Bolívar I,9.131973,-79.548729,2015-04-07 02:27:19 UTC,2015-04-07 02:27:19 UTC
457,Calle Ola,9.12547,-79.555183,2015-04-07 02:27:19 UTC,2015-04-07 02:27:19 UTC
458,Estación La Cabima,9.110105,-79.538522,2015-04-07 02:27:19 UTC,2015-04-07 02:27:19 UTC
459,Albrook,8.974218,-79.551637,2015-04-13 15:01:10 UTC,2015-04-13 15:01:10 UTC
460,Calle Van Hook R,8.940866,-79.552732,2015-04-13 16:36:23 UTC,2015-04-13 16:36:23 UTC
461,Diablo R,8.973227,-79.565628,2015-04-13 16:57:10 UTC,2015-04-13 16:57:10 UTC
462,Miraflores I,9.003392,-79.589242,2015-04-13 17:00:15 UTC,2015-04-13 17:00:15 UTC
463,Miraflores R,9.003683,-79.589317,2015-04-13 17:02:52 UTC,2015-04-13 17:02:52 UTC
389,Paitilla I,8.976109,-79.516652,2015-04-07 02:27:19 UTC,2015-04-14 22:54:39 UTC
464,Paitilla R,8.976073,-79.51605,2015-04-14 22:55:05 UTC,2015-04-14 22:55:05 UTC
60,Cervecería Nacional R,8.989771,-79.533353,2015-04-07 02:27:18 UTC,2015-04-14 22:57:26 UTC
55,Antiguo Depósito R,8.996883,-79.533314,2015-04-07 02:27:18 UTC,2015-04-14 22:58:14 UTC
465,Calle Radial B R,9.049124,-79.436833,2015-04-15 14:01:51 UTC,2015-04-15 14:01:51 UTC
467,Calle Radial J I,9.044653,-79.429951,2015-04-15 14:04:30 UTC,2015-04-15 14:04:30 UTC
466,Concepción I,9.046496,-79.434441,2015-04-15 14:02:55 UTC,2015-04-15 14:07:26 UTC
331,Calle Plutón,9.042592,-79.423371,2015-04-07 02:27:19 UTC,2015-04-15 14:11:31 UTC
468,Escuela Rubiano R,9.035837,-79.505889,2015-04-15 15:42:48 UTC,2015-04-15 15:43:00 UTC
469,Chivo R,9.072836,-79.523356,2015-04-15 15:46:04 UTC,2015-04-15 15:46:04 UTC
121,El Palmar R,9.08557,-79.528125,2015-04-07 02:27:18 UTC,2015-04-15 15:47:00 UTC
470,Villa Flora R,9.103707,-79.533913,2015-04-15 15:48:37 UTC,2015-04-15 15:48:37 UTC
472,Bella Vista I,8.974165,-79.534364,2015-04-15 16:34:33 UTC,2015-04-15 16:34:33 UTC
471,Martín Sosa R,8.977366,-79.53446,2015-04-15 16:32:23 UTC,2015-04-15 16:35:13 UTC
101,San José (Interamericana) R,9.04482,-79.507197,2015-04-07 02:27:18 UTC,2015-04-15 17:14:05 UTC
403,Circunvalación Vía Israel R,8.983688,-79.512382,2015-04-07 02:27:19 UTC,2015-04-16 19:28:24 UTC
400,Hospital Punta Pacífica,8.982258,-79.510716,2015-04-07 02:27:19 UTC,2015-04-16 19:30:16 UTC
401,San Sebastián I,8.981239,-79.510798,2015-04-07 02:27:19 UTC,2015-04-16 19:28:53 UTC
473,Puente Roque R,9.128538,-79.614744,2015-04-15 16:36:12 UTC,2015-04-15 16:36:12 UTC
474,Puente Roque I,9.128919,-79.61586,2015-04-15 16:36:44 UTC,2015-04-15 16:36:44 UTC
475,San José R,9.13697,-79.620023,2015-04-15 16:38:43 UTC,2015-04-15 16:38:43 UTC
476,San José I,9.136334,-79.62131,2015-04-15 16:38:59 UTC,2015-04-15 16:38:59 UTC
478,Tropigas I,9.144559,-79.621949,2015-04-15 16:39:40 UTC,2015-04-15 16:39:50 UTC
477,Tropigas R,9.144575,-79.621605,2015-04-15 16:39:15 UTC,2015-04-15 16:40:02 UTC
479,Chilibre Centro R,9.153579,-79.621396,2015-04-15 16:40:27 UTC,2015-04-15 16:40:27 UTC
480,Chilibre Centro I,9.153621,-79.622684,2015-04-15 16:40:42 UTC,2015-04-15 16:40:42 UTC
481,Escuela Rooselvet I,9.16184,-79.621439,2015-04-15 16:41:36 UTC,2015-04-15 16:41:36 UTC
482,Escuela Rooselvet R,9.161798,-79.619915,2015-04-15 16:43:52 UTC,2015-04-15 16:43:52 UTC
486,Agua Bendita I,9.168958,-79.618177,2015-04-15 16:45:47 UTC,2015-04-15 16:45:47 UTC
485,Agua Bendita R,9.171299,-79.616396,2015-04-15 16:45:27 UTC,2015-04-15 16:46:07 UTC
487,Villa Linda R,9.1801,-79.615045,2015-04-15 16:46:31 UTC,2015-04-15 16:46:31 UTC
488,Villa Linda I,9.1801,-79.616053,2015-04-15 16:47:04 UTC,2015-04-15 16:47:04 UTC
489,Chilibrillo R,9.186392,-79.615946,2015-04-15 16:47:23 UTC,2015-04-15 16:47:23 UTC
490,Chilibrillo I,9.186127,-79.616375,2015-04-15 16:47:44 UTC,2015-04-15 16:47:44 UTC
492,Madden R,9.199037,-79.623671,2015-04-15 16:49:29 UTC,2015-04-15 16:49:29 UTC
493,Madden I,9.198693,-79.624143,2015-04-15 16:49:44 UTC,2015-04-15 16:49:55 UTC
495,Villa Unida R,9.193911,-79.619207,2015-04-15 16:51:02 UTC,2015-04-15 16:51:02 UTC
494,Villa Unida I,9.194007,-79.61991,2015-04-15 16:50:30 UTC,2015-04-15 16:51:16 UTC
496,Buen Paisaje I,9.18887,-79.617727,2015-04-15 16:51:59 UTC,2015-04-15 16:51:59 UTC
497,Buen Paisaje R,9.189347,-79.616933,2015-04-15 16:52:24 UTC,2015-04-15 16:52:24 UTC
212,Policía Nacional R,8.96563,-79.549224,2015-04-07 02:27:19 UTC,2015-04-15 16:54:53 UTC
484,Las Vegas R,9.164647,-79.619443,2015-04-15 16:44:39 UTC,2015-04-15 16:59:37 UTC
532,La Doña R,9.10287,-79.370105,2015-04-16 20:00:59 UTC,2015-04-16 20:24:50 UTC
483,Las Vegas I,9.165044,-79.620034,2015-04-15 16:44:22 UTC,2015-04-15 16:59:55 UTC
491,Chagres I,9.201283,-79.625731,2015-04-15 16:49:08 UTC,2015-04-15 17:02:32 UTC
498,Chagres R,9.20133,-79.625564,2015-04-15 17:02:36 UTC,2015-04-15 17:03:15 UTC
499,La Cuchilla de Calidonia,8.968082,-79.539353,2015-04-15 17:08:13 UTC,2015-04-15 17:08:13 UTC
180,Aeropuerto R,9.070876,-79.388318,2015-04-07 02:27:19 UTC,2015-04-16 16:42:13 UTC
500,Pantanal R,9.074049,-79.388822,2015-04-16 16:45:41 UTC,2015-04-16 16:46:34 UTC
502,Bomberos de Tocumen R,9.080808,-79.385367,2015-04-16 16:50:44 UTC,2015-04-16 16:50:44 UTC
503,Leones I,9.0828,-79.384444,2015-04-16 16:51:28 UTC,2015-04-16 16:51:28 UTC
534,24 de Diciembre R,9.102854,-79.367364,2015-04-16 20:04:08 UTC,2015-04-16 20:29:44 UTC
511,La Siesta Vieja I,9.082434,-79.366522,2015-04-16 17:01:16 UTC,2015-04-16 17:47:50 UTC
512,El Brillante R,9.086762,-79.3665,2015-04-16 17:48:27 UTC,2015-04-16 17:48:27 UTC
513,Torremolino I,9.06961,-79.392947,2015-04-16 17:50:59 UTC,2015-04-16 17:50:59 UTC
504,Morelo I,9.08646,-79.384782,2015-04-16 16:51:55 UTC,2015-04-16 17:52:40 UTC
514,San Antonio I,9.088494,-79.382658,2015-04-16 17:53:12 UTC,2015-04-16 17:53:20 UTC
505,Calle Van Der Hans I,9.08984,-79.381076,2015-04-16 16:55:10 UTC,2015-04-16 17:53:39 UTC
506,Escuela Ricardo J. Alfaro I,9.091694,-79.379252,2015-04-16 16:55:54 UTC,2015-04-16 17:53:53 UTC
507,Calle Gelabert I,9.093781,-79.377213,2015-04-16 16:56:36 UTC,2015-04-16 17:54:14 UTC
508,Corregiduría Tocumen I,9.09681,-79.375582,2015-04-16 16:57:12 UTC,2015-04-16 17:54:29 UTC
509,Cruce de Tocumen I,9.097785,-79.370754,2015-04-16 16:58:26 UTC,2015-04-16 17:54:46 UTC
193,La Garceta R,9.094686,-79.368059,2015-04-07 02:27:19 UTC,2015-04-16 17:54:54 UTC
510,La Garceta I,9.094935,-79.367884,2015-04-16 16:59:05 UTC,2015-04-16 17:55:01 UTC
501,La Morada I,9.077471,-79.386821,2015-04-16 16:50:02 UTC,2015-04-16 17:56:38 UTC
515,Boulevard,8.964643,-79.534943,2015-04-16 18:59:03 UTC,2015-04-16 18:59:31 UTC
214,Avenida Samuel Lewis,8.989637,-79.51613,2015-04-07 02:27:19 UTC,2015-04-16 19:26:18 UTC
516,Circunvalación Vía Brasil I,8.983486,-79.512354,2015-04-16 19:28:15 UTC,2015-04-16 19:28:15 UTC
525,Hospital 24 de Diciembre I,9.094596,-79.394052,2015-04-16 19:58:24 UTC,2015-04-16 20:24:01 UTC
535,24 de Diciembre I,9.103177,-79.36642,2015-04-16 20:04:25 UTC,2015-04-16 20:29:31 UTC
557,Pacora I,9.087032,-79.286335,2015-04-16 20:14:29 UTC,2015-04-16 20:14:29 UTC
558,Pacora R,9.086841,-79.287493,2015-04-16 20:14:41 UTC,2015-04-16 20:14:41 UTC
520,Industrial R,9.084172,-79.397678,2015-04-16 19:53:47 UTC,2015-04-16 20:22:44 UTC
521,Industrial I,9.084108,-79.398429,2015-04-16 19:54:00 UTC,2015-04-16 20:22:51 UTC
519,Mañanitas I,9.079415,-79.400285,2015-04-16 19:52:28 UTC,2015-04-16 20:23:05 UTC
522,La Loma R,9.08932,-79.39549,2015-04-16 19:54:24 UTC,2015-04-16 20:23:42 UTC
518,Las Américas I,9.072433,-79.403472,2015-04-16 19:51:48 UTC,2015-04-16 20:38:25 UTC
523,La Loma I,9.089977,-79.396069,2015-04-16 19:54:36 UTC,2015-04-16 20:23:48 UTC
524,Hospital 24 de Diciembre R,9.094384,-79.393129,2015-04-16 19:58:02 UTC,2015-04-16 20:23:55 UTC
526,Punta del Este R,9.099342,-79.388452,2015-04-16 19:58:47 UTC,2015-04-16 20:24:07 UTC
527,Punta del Este I,9.10002,-79.389181,2015-04-16 19:59:03 UTC,2015-04-16 20:24:13 UTC
528,La Fonda R,9.101525,-79.38416,2015-04-16 19:59:38 UTC,2015-04-16 20:24:19 UTC
529,La Fonda I,9.102732,-79.384353,2015-04-16 19:59:52 UTC,2015-04-16 20:24:28 UTC
539,Nuevo Tocumen R,9.101122,-79.348626,2015-04-16 20:06:19 UTC,2015-04-16 20:30:46 UTC
530,El Encanto R,9.103241,-79.378774,2015-04-16 20:00:12 UTC,2015-04-16 20:30:07 UTC
533,La Doña I,9.103432,-79.370078,2015-04-16 20:01:16 UTC,2015-04-16 20:24:45 UTC
531,El Encanto I,9.103469,-79.379348,2015-04-16 20:00:27 UTC,2015-04-16 20:30:00 UTC
536,La Casa del Zink I,9.102891,-79.363614,2015-04-16 20:04:54 UTC,2015-04-16 20:27:24 UTC
538,Las Paredes I,9.102589,-79.359693,2015-04-16 20:05:58 UTC,2015-04-16 20:29:20 UTC
537,Las Paredes R,9.102319,-79.35943,2015-04-16 20:05:47 UTC,2015-04-16 20:29:13 UTC
540,Nuevo Tocumen I,9.102224,-79.34957,2015-04-16 20:06:35 UTC,2015-04-16 20:30:53 UTC
541,El Molino I,9.100762,-79.331015,2015-04-16 20:07:59 UTC,2015-04-16 20:31:31 UTC
544,Felipillo I,9.100614,-79.32837,2015-04-16 20:09:01 UTC,2015-04-16 20:31:43 UTC
542,El Molino R,9.100259,-79.331262,2015-04-16 20:08:24 UTC,2015-04-16 20:31:21 UTC
546,Nueva Esperanza I,9.10002,-79.32189,2015-04-16 20:10:08 UTC,2015-04-16 20:32:22 UTC
543,Felipillo R,9.100004,-79.32697,2015-04-16 20:08:48 UTC,2015-04-16 20:31:59 UTC
554,Cruce de Pacora I,9.098241,-79.287257,2015-04-16 20:13:17 UTC,2015-04-16 20:33:55 UTC
547,San Juan R,9.09841,-79.303286,2015-04-16 20:10:25 UTC,2015-04-16 20:32:43 UTC
548,San Juan I,9.098728,-79.303651,2015-04-16 20:10:38 UTC,2015-04-16 20:32:59 UTC
549,Tatare R,9.09788,-79.29672,2015-04-16 20:11:11 UTC,2015-04-16 20:33:16 UTC
550,Tatare I,9.098283,-79.296972,2015-04-16 20:11:29 UTC,2015-04-16 20:33:28 UTC
553,Cruce de Pacora R,9.09788,-79.287279,2015-04-16 20:12:50 UTC,2015-04-16 20:33:49 UTC
555,Colinas de Pacora R,9.088748,-79.288416,2015-04-16 20:13:43 UTC,2015-04-16 20:34:47 UTC
551,Altos de Tatare R,9.097547,-79.291055,2015-04-16 20:11:47 UTC,2015-04-16 20:34:27 UTC
552,Altos de Tatare I,9.097896,-79.291221,2015-04-16 20:12:10 UTC,2015-04-16 20:34:25 UTC
556,Colinas de Pacora I,9.088812,-79.287472,2015-04-16 20:13:58 UTC,2015-04-16 20:34:54 UTC
559,Parque Pacora R,9.084468,-79.287343,2015-04-16 20:14:58 UTC,2015-04-16 20:35:11 UTC
560,Parque Pacora I,9.084638,-79.286592,2015-04-16 20:15:12 UTC,2015-04-16 20:35:16 UTC
517,Las Américas R,9.072242,-79.402463,2015-04-16 19:51:36 UTC,2015-04-16 20:38:16 UTC
545,Nueva Esperanza R,9.099687,-79.322287,2015-04-16 20:09:54 UTC,2015-04-16 20:32:17 UTC
561,Calle Gabilán,8.950935,-79.55285,2015-04-17 15:41:08 UTC,2015-04-17 15:41:08 UTC
562,El Límite I,8.951602,-79.548032,2015-04-17 15:42:10 UTC,2015-04-17 15:42:10 UTC
563,Avenida de los Mártires,8.957468,-79.543843,2015-04-17 15:43:06 UTC,2015-04-17 15:43:06 UTC
570,Furniture City R,8.995884,-79.519429,2015-04-24 19:56:10 UTC,2015-04-24 19:56:10 UTC
571,Villa Las Fuentes R,9.014847,-79.534718,2015-04-24 21:01:52 UTC,2015-04-24 21:01:52 UTC
572,Universidad Tecnológica R,9.019498,-79.531671,2015-04-24 21:02:25 UTC,2015-04-24 21:02:25 UTC
573,Santa María R,9.020706,-79.529021,2015-04-24 21:02:48 UTC,2015-04-24 21:02:48 UTC
574,Club de las Montañas R,9.031027,-79.515781,2015-04-24 21:04:47 UTC,2015-04-24 21:04:47 UTC
575,Artec R,9.031366,-79.511597,2015-04-24 21:08:38 UTC,2015-04-24 21:08:38 UTC
576,Escuela Manuel E. Amador R,9.008086,-79.5187,2015-04-24 21:13:42 UTC,2015-04-24 21:13:42 UTC
577,Cemento Panama I,9.019287,-79.517198,2015-04-24 21:15:38 UTC,2015-04-24 21:15:38 UTC
578,Cemento Panamá R,9.020018,-79.516329,2015-04-24 21:16:00 UTC,2015-04-24 21:16:00 UTC
579,Calle 81 Oeste R,9.024235,-79.51046,2015-04-24 21:16:36 UTC,2015-04-24 21:16:36 UTC
580,Calle 81 Oeste I,9.024945,-79.510342,2015-04-24 21:16:49 UTC,2015-04-24 21:16:49 UTC
581,villa de la fuente,8.94536,-79.554255,2015-04-25 17:29:16 UTC,2015-04-25 17:29:16 UTC
39,Plaza Córdoba R,9.001658,-79.520017,2015-04-07 02:27:18 UTC,2015-04-26 21:16:53 UTC
582,IFARHU,8.979782,-79.529225,2015-04-26 21:20:45 UTC,2015-04-26 21:20:45 UTC
583,Medisalud,8.977991,-79.532744,2015-04-26 21:23:51 UTC,2015-04-26 21:23:51 UTC
584,Calle M,8.963006,-79.540662,2015-04-26 21:27:44 UTC,2015-04-26 21:27:44 UTC
569,Calle 27 Este,8.9645,-79.537432,2015-04-24 19:02:52 UTC,2015-04-26 21:28:45 UTC
585,Multiláminas I,8.996928,-79.527213,2015-04-26 22:39:40 UTC,2015-04-26 22:39:40 UTC
70,Calle 64 Oeste I,8.999922,-79.525101,2015-04-07 02:27:18 UTC,2015-04-26 22:40:46 UTC
72,Bethania R,9.002413,-79.523006,2015-04-07 02:27:18 UTC,2015-04-26 22:40:57 UTC
165,Severino Hernández R,9.029125,-79.496727,2015-04-07 02:27:18 UTC,2015-04-26 22:47:31 UTC
586,Rooselvet R,9.030513,-79.491309,2015-04-26 22:48:37 UTC,2015-04-26 22:48:37 UTC
588,Súper 99 San Miguelito,9.030349,-79.50531,2015-04-26 22:53:46 UTC,2015-04-26 22:53:46 UTC
163,Las Colinas R,9.030577,-79.502403,2015-04-07 02:27:18 UTC,2015-04-26 22:55:39 UTC
589,Las Colinas I,9.030873,-79.502102,2015-04-26 22:55:58 UTC,2015-04-26 22:55:58 UTC
590,Vila Lucre I,9.037596,-79.48102,2015-04-26 22:58:16 UTC,2015-04-26 22:58:16 UTC
591,Villa Lucre R,9.03731,-79.480548,2015-04-26 22:58:40 UTC,2015-04-26 22:58:40 UTC
592,Plaza Conquistador I,9.041718,-79.475055,2015-04-26 22:59:52 UTC,2015-04-26 22:59:52 UTC
587,El Crisol R,9.043286,-79.47204,2015-04-26 22:51:22 UTC,2015-04-26 23:00:28 UTC
593,Nueva California R,9.054835,-79.437944,2015-04-26 23:10:03 UTC,2015-04-26 23:10:03 UTC
594,Nueva California I,9.055238,-79.438233,2015-04-26 23:10:52 UTC,2015-04-26 23:10:52 UTC
595,Universidad Tecnológica de Panamá UTP R,9.06811,-79.406905,2015-04-26 23:13:42 UTC,2015-04-26 23:13:42 UTC
596,Universidad Tecnológica de Panamá UTP I,9.069011,-79.40712,2015-04-26 23:14:11 UTC,2015-04-26 23:14:11 UTC
597,Carvajal,9.066256,-79.412463,2015-04-26 23:15:39 UTC,2015-04-26 23:15:39 UTC
598,Harinas del Itsmo R,9.065133,-79.414555,2015-04-26 23:16:01 UTC,2015-04-26 23:16:01 UTC
599,Harinas del Itsmo I,9.064964,-79.41625,2015-04-26 23:16:50 UTC,2015-04-26 23:16:50 UTC
600,Cardoze & Lindo,9.035689,-79.48293,2015-04-26 23:20:58 UTC,2015-04-26 23:20:58 UTC
298,Calle 140 Oeste,9.062522,-79.43002,2015-04-07 02:27:19 UTC,2015-04-26 23:30:30 UTC
603,Calle 149 Este A,9.063322,-79.420381,2015-04-26 23:43:30 UTC,2015-04-26 23:43:30 UTC
605,Calle 149 Este,9.062177,-79.42081,2015-04-26 23:50:40 UTC,2015-04-26 23:50:40 UTC
604,Calle 139 Este R,9.060821,-79.426517,2015-04-26 23:45:54 UTC,2015-04-26 23:51:46 UTC
607,San Pedro Norte R,9.047217,-79.463232,2015-04-26 23:53:34 UTC,2015-04-26 23:54:26 UTC
608,Cerro Viento R,9.049633,-79.454606,2015-04-26 23:54:51 UTC,2015-04-26 23:54:51 UTC
601,San Cristobal Norte R,9.04478,-79.468403,2015-04-26 23:24:08 UTC,2015-04-26 23:59:32 UTC
602,San Cristobal Norte I,9.045368,-79.468698,2015-04-26 23:25:14 UTC,2015-04-26 23:59:44 UTC
609,Brisas del Golf R,9.048287,-79.460474,2015-04-26 23:56:20 UTC,2015-04-27 00:00:29 UTC
284,Villa de Don Bosco I,9.04158,-79.407586,2015-04-07 02:27:19 UTC,2015-04-27 00:14:39 UTC
610,Calle 4 R,9.054909,-79.417312,2015-04-27 00:16:47 UTC,2015-04-27 00:16:47 UTC
606,Don Bosco I,9.061478,-79.423074,2015-04-26 23:51:06 UTC,2015-04-27 00:18:44 UTC
